{
"type": "FeatureCollection",
"crs": { "type": "name", "properties": { "name": "urn:ogc:def:crs:OGC:1.3:CRS84" } },
                                                                                                                                  
"features": [
{ "type": "Feature", "properties": { "storenum": "1", "OPENDATE": "7\/1\/1962", "": null, "date_super": "3\/1\/1997", "conversion": null, "st": "1", "address": "5", "city": "7", "state": "2110 WEST WALNUT", "ZIPCODE": "Rogers", "type_store": "AR", "addrtype": "72756", "addrlocat": "Supercenter" }, "geometry": { "type": "Point", "coordinates": [ -94.1489661, 36.3312414 ] } },
{ "type": "Feature", "properties": { "storenum": "2", "OPENDATE": "8\/1\/1964", "": null, "date_super": "3\/1\/1996", "conversion": null, "st": "1", "address": "5", "city": "9", "state": "1417 HWY 62\/65 N", "ZIPCODE": "Harrison", "type_store": "AR", "addrtype": "72601", "addrlocat": "Supercenter" }, "geometry": { "type": "Point", "coordinates": [ -93.1872224, 36.2923164 ] } },
{ "type": "Feature", "properties": { "storenum": "3", "OPENDATE": "4\/12\/1988", "": null, "date_super": "3\/1\/2000", "conversion": null, "st": "1", "address": "13", "city": "11", "state": "30983 HWY 441 SOUTH", "ZIPCODE": "Commerce", "type_store": "GA", "addrtype": "30529", "addrlocat": "Supercenter" }, "geometry": { "type": "Point", "coordinates": [ -83.4566061, 34.2479045 ] } },
{ "type": "Feature", "properties": { "storenum": "4", "OPENDATE": "8\/1\/1965", "": null, "date_super": "3\/1\/2002", "conversion": null, "st": "1", "address": "5", "city": "7", "state": "2901 HWY 412 EAST", "ZIPCODE": "Siloam Springs", "type_store": "AR", "addrtype": "72761", "addrlocat": "Supercenter" }, "geometry": { "type": "Point", "coordinates": [ -94.512615, 36.183175 ] } },
{ "type": "Feature", "properties": { "storenum": "5", "OPENDATE": "5\/1\/1972", "": null, "date_super": "3\/1\/1994", "conversion": null, "st": "1", "address": "5", "city": "45", "state": "1155 HWY 65 NORTH", "ZIPCODE": "Conway", "type_store": "AR", "addrtype": "72032", "addrlocat": "Supercenter" }, "geometry": { "type": "Point", "coordinates": [ -92.439962, 35.1104259 ] } },
{ "type": "Feature", "properties": { "storenum": "7", "OPENDATE": "10\/1\/1967", "": null, "date_super": null, "conversion": null, "st": "5", "address": "119", "city": "3801 CAMP ROBINSON RD.", "state": "North Little Rock", "ZIPCODE": "AR", "type_store": "72118", "addrtype": "Wal-Mart", "addrlocat": null }, "geometry": { "type": "Point", "coordinates": [ -92.2767785, 34.7908442 ] } },
{ "type": "Feature", "properties": { "storenum": "8", "OPENDATE": "10\/1\/1967", "": null, "date_super": "3\/1\/1993", "conversion": null, "st": "1", "address": "5", "city": "29", "state": "1621 NORTH BUSINESS 9", "ZIPCODE": "Morrilton", "type_store": "AR", "addrtype": "72110", "addrlocat": "Supercenter" }, "geometry": { "type": "Point", "coordinates": [ -92.7267627, 35.1688405 ] } },
{ "type": "Feature", "properties": { "storenum": "9", "OPENDATE": "3\/1\/1968", "": null, "date_super": "3\/1\/2000", "conversion": null, "st": "1", "address": "29", "city": "143", "state": "1303 SOUTH MAIN", "ZIPCODE": "Sikeston", "type_store": "MO", "addrtype": "63801", "addrlocat": "Supercenter" }, "geometry": { "type": "Point", "coordinates": [ -89.5859946, 36.8571918 ] } },
{ "type": "Feature", "properties": { "storenum": "10", "OPENDATE": "7\/1\/1968", "": null, "date_super": "3\/1\/1998", "conversion": null, "st": "1", "address": "40", "city": "21", "state": "2020 SOUTH MUSKOGEE", "ZIPCODE": "Tahlequah", "type_store": "OK", "addrtype": "74464", "addrlocat": "Supercenter" }, "geometry": { "type": "Point", "coordinates": [ -94.9799936, 35.8887878 ] } },
{ "type": "Feature", "properties": { "storenum": "11", "OPENDATE": "3\/1\/1968", "": null, "date_super": "2\/20\/2002", "conversion": null, "st": "1", "address": "5", "city": "5", "state": "65 WAL-MART DRIVE", "ZIPCODE": "Mountain Home", "type_store": "AR", "addrtype": "72653", "addrlocat": "Supercenter" }, "geometry": { "type": "Point", "coordinates": [ -92.381346, 36.3353949 ] } },
{ "type": "Feature", "properties": { "storenum": "12", "OPENDATE": "7\/1\/1968", "": null, "date_super": "3\/1\/1994", "conversion": null, "st": "1", "address": "40", "city": "131", "state": "1500 LYNN RIGGS BLVD", "ZIPCODE": "Claremore", "type_store": "OK", "addrtype": "74017", "addrlocat": "Supercenter" }, "geometry": { "type": "Point", "coordinates": [ -95.6272899, 36.2939736 ] } },
{ "type": "Feature", "properties": { "storenum": "13", "OPENDATE": "11\/1\/1968", "": null, "date_super": "3\/1\/1996", "conversion": null, "st": "1", "address": "29", "city": "97", "state": "2705 GRAND AVE", "ZIPCODE": "Carthage", "type_store": "MO", "addrtype": "64836", "addrlocat": "Supercenter" }, "geometry": { "type": "Point", "coordinates": [ -94.3133077, 37.1419654 ] } },
{ "type": "Feature", "properties": { "storenum": "14", "OPENDATE": "4\/1\/1969", "": null, "date_super": "3\/1\/1999", "conversion": null, "st": "1", "address": "29", "city": "105", "state": "1800 S JEFFERSON", "ZIPCODE": "Lebanon", "type_store": "MO", "addrtype": "65536", "addrlocat": "Supercenter" }, "geometry": { "type": "Point", "coordinates": [ -92.6459041, 37.6635604 ] } },
{ "type": "Feature", "properties": { "storenum": "15", "OPENDATE": "5\/1\/1969", "": null, "date_super": "3\/1\/1995", "conversion": null, "st": "1", "address": "29", "city": "91", "state": "1310 PREACHER RD\/HGWY 160", "ZIPCODE": "West Plains", "type_store": "MO", "addrtype": "65775", "addrlocat": "Supercenter" }, "geometry": { "type": "Point", "coordinates": [ -91.8523711, 36.7281154 ] } },
{ "type": "Feature", "properties": { "storenum": "16", "OPENDATE": "4\/1\/1969", "": null, "date_super": "3\/1\/2000", "conversion": null, "st": "1", "address": "5", "city": "33", "state": "2214 FAYETTEVILLE RD", "ZIPCODE": "Van Buren", "type_store": "AR", "addrtype": "72956", "addrlocat": "Supercenter" }, "geometry": { "type": "Point", "coordinates": [ -94.3533004, 35.4690187 ] } },
{ "type": "Feature", "properties": { "storenum": "17", "OPENDATE": "5\/1\/1969", "": null, "date_super": "3\/1\/1993", "conversion": null, "st": "1", "address": "29", "city": "145", "state": "3200 LUSK DRIVE", "ZIPCODE": "Neosho", "type_store": "MO", "addrtype": "64850", "addrlocat": "Supercenter" }, "geometry": { "type": "Point", "coordinates": [ -94.3973495, 36.8391997 ] } },
{ "type": "Feature", "properties": { "storenum": "18", "OPENDATE": "11\/1\/1969", "": null, "date_super": null, "conversion": null, "st": "5", "address": "67", "city": "2500 MALCOLM ST\/HWY 67 NORTH", "state": "Newport", "ZIPCODE": "AR", "type_store": "72112", "addrtype": "Wal-Mart", "addrlocat": null }, "geometry": { "type": "Point", "coordinates": [ -91.2817951, 35.6048018 ] } },
{ "type": "Feature", "properties": { "storenum": "19", "OPENDATE": "4\/3\/1990", "": null, "date_super": "4\/3\/1990", "conversion": null, "st": "0", "address": "29", "city": "23", "state": "333 S WESTWOOD", "ZIPCODE": "Poplar Bluff", "type_store": "MO", "addrtype": "63901", "addrlocat": "Supercenter" }, "geometry": { "type": "Point", "coordinates": [ -90.4107252, 36.7557236 ] } },
{ "type": "Feature", "properties": { "storenum": "20", "OPENDATE": "10\/1\/1970", "": null, "date_super": "3\/1\/1999", "conversion": null, "st": "1", "address": "29", "city": "83", "state": "1712 EAST OHIO", "ZIPCODE": "Clinton", "type_store": "MO", "addrtype": "64735", "addrlocat": "Supercenter" }, "geometry": { "type": "Point", "coordinates": [ -93.7505704, 38.3627324 ] } },
{ "type": "Feature", "properties": { "storenum": "21", "OPENDATE": "3\/1\/1970", "": null, "date_super": "8\/22\/2001", "conversion": null, "st": "1", "address": "29", "city": "169", "state": "185 ST ROBERT BLVD", "ZIPCODE": "St. Robert", "type_store": "MO", "addrtype": "65584", "addrlocat": "Supercenter" }, "geometry": { "type": "Point", "coordinates": [ -92.1522065, 37.8249974 ] } },
{ "type": "Feature", "properties": { "storenum": "22", "OPENDATE": "10\/1\/1970", "": null, "date_super": "5\/18\/2005", "conversion": null, "st": "1", "address": "40", "city": "97", "state": "4901 SO. MILL ROAD", "ZIPCODE": "Pryor", "type_store": "OK", "addrtype": "74361", "addrlocat": "Supercenter" }, "geometry": { "type": "Point", "coordinates": [ -95.3190072, 36.3063408 ] } },
{ "type": "Feature", "properties": { "storenum": "23", "OPENDATE": "11\/1\/1970", "": null, "date_super": "3\/1\/1994", "conversion": null, "st": "1", "address": "22", "city": "61", "state": "1201 N SERVICE ROAD EAST", "ZIPCODE": "Ruston", "type_store": "LA", "addrtype": "71270", "addrlocat": "Supercenter" }, "geometry": { "type": "Point", "coordinates": [ -92.6241629, 32.5435404 ] } },
{ "type": "Feature", "properties": { "storenum": "24", "OPENDATE": "4\/1\/1971", "": null, "date_super": "3\/1\/1999", "conversion": null, "st": "1", "address": "5", "city": "119", "state": "2000 JOHN HARDEN DR", "ZIPCODE": "Jacksonville", "type_store": "AR", "addrtype": "72076", "addrlocat": "Supercenter" }, "geometry": { "type": "Point", "coordinates": [ -92.1125495, 34.8851231 ] } },
{ "type": "Feature", "properties": { "storenum": "25", "OPENDATE": "2\/1\/1971", "": null, "date_super": "5\/18\/2005", "conversion": null, "st": "1", "address": "29", "city": "7", "state": "4820 SO. CLARK ST", "ZIPCODE": "Mexico", "type_store": "MO", "addrtype": "65265", "addrlocat": "Supercenter" }, "geometry": { "type": "Point", "coordinates": [ -91.8906423, 39.1204158 ] } },
{ "type": "Feature", "properties": { "storenum": "26", "OPENDATE": "11\/1\/1970", "": null, "date_super": null, "conversion": null, "st": "20", "address": "103", "city": "3450 S. 4TH TRAFFICWAY", "state": "Leavenworth", "ZIPCODE": "KS", "type_store": "66048", "addrtype": "Wal-Mart", "addrlocat": null }, "geometry": { "type": "Point", "coordinates": [ -94.9224637, 39.3111112 ] } },
{ "type": "Feature", "properties": { "storenum": "27", "OPENDATE": "2\/1\/1971", "": null, "date_super": "3\/1\/1999", "conversion": null, "st": "1", "address": "29", "city": "65", "state": "1101 HWY 32 WEST", "ZIPCODE": "Salem", "type_store": "MO", "addrtype": "65560", "addrlocat": "Supercenter" }, "geometry": { "type": "Point", "coordinates": [ -91.5460512, 37.6341199 ] } },
{ "type": "Feature", "properties": { "storenum": "28", "OPENDATE": "5\/1\/1971", "": null, "date_super": "3\/1\/2002", "conversion": null, "st": "1", "address": "40", "city": "115", "state": "2415 N.W. MAIN ST", "ZIPCODE": "Miami", "type_store": "OK", "addrtype": "74354", "addrlocat": "Supercenter" }, "geometry": { "type": "Point", "coordinates": [ -94.880454, 36.9044939 ] } },
{ "type": "Feature", "properties": { "storenum": "29", "OPENDATE": "8\/1\/1971", "": null, "date_super": "3\/1\/1989", "conversion": null, "st": "1", "address": "29", "city": "51", "state": "724 STADIUM WEST BLVD", "ZIPCODE": "Jefferson City", "type_store": "MO", "addrtype": "65109", "addrlocat": "Supercenter" }, "geometry": { "type": "Point", "coordinates": [ -92.2199959, 38.5799963 ] } },
{ "type": "Feature", "properties": { "storenum": "30", "OPENDATE": "11\/1\/1971", "": null, "date_super": "5\/18\/2005", "conversion": null, "st": "1", "address": "29", "city": "207", "state": "2025 BUS. HWY 60 WEST", "ZIPCODE": "Dexter", "type_store": "MO", "addrtype": "63841", "addrlocat": "Supercenter" }, "geometry": { "type": "Point", "coordinates": [ -89.9578688, 36.7958866 ] } },
{ "type": "Feature", "properties": { "storenum": "31", "OPENDATE": "6\/1\/1971", "": null, "date_super": "3\/1\/1995", "conversion": null, "st": "1", "address": "40", "city": "79", "state": "3108 N BROADWAY", "ZIPCODE": "Poteau", "type_store": "OK", "addrtype": "74953", "addrlocat": "Supercenter" }, "geometry": { "type": "Point", "coordinates": [ -94.6281897, 35.0946495 ] } },
{ "type": "Feature", "properties": { "storenum": "32", "OPENDATE": "6\/1\/1971", "": null, "date_super": null, "conversion": null, "st": "29", "address": "213", "city": "2050 WEST HWY 76", "state": "Branson", "ZIPCODE": "MO", "type_store": "65616", "addrtype": "Wal-Mart", "addrlocat": null }, "geometry": { "type": "Point", "coordinates": [ -93.2598508, 36.639031 ] } },
{ "type": "Feature", "properties": { "storenum": "33", "OPENDATE": "6\/1\/1971", "": null, "date_super": "9\/17\/2003", "conversion": null, "st": "1", "address": "5", "city": "61", "state": "1710 SO. 4TH ST", "ZIPCODE": "Nashville", "type_store": "AR", "addrtype": "71852", "addrlocat": "Supercenter" }, "geometry": { "type": "Point", "coordinates": [ -93.8574308, 33.9253864 ] } },
{ "type": "Feature", "properties": { "storenum": "34", "OPENDATE": "11\/1\/1971", "": null, "date_super": "5\/21\/2003", "conversion": null, "st": "1", "address": "29", "city": "217", "state": "2250 LINCOLN AVENUE", "ZIPCODE": "Nevada", "type_store": "MO", "addrtype": "64772", "addrlocat": "Supercenter" }, "geometry": { "type": "Point", "coordinates": [ -94.3266736, 37.8322281 ] } },
{ "type": "Feature", "properties": { "storenum": "35", "OPENDATE": "10\/1\/1971", "": null, "date_super": "3\/17\/2004", "conversion": null, "st": "1", "address": "20", "city": "161", "state": "101 EAST BLUEMONT AVENUE", "ZIPCODE": "Manhattan", "type_store": "KS", "addrtype": "66502", "addrlocat": "Supercenter" }, "geometry": { "type": "Point", "coordinates": [ -96.5561696, 39.1885392 ] } },
{ "type": "Feature", "properties": { "storenum": "36", "OPENDATE": "11\/1\/1971", "": null, "date_super": "3\/1\/1996", "conversion": null, "st": "1", "address": "5", "city": "55", "state": "2802 WEST KINGS HIGHWAY", "ZIPCODE": "Paragould", "type_store": "AR", "addrtype": "72450", "addrlocat": "Supercenter" }, "geometry": { "type": "Point", "coordinates": [ -90.5228628, 36.0572863 ] } },
{ "type": "Feature", "properties": { "storenum": "37", "OPENDATE": "9\/1\/1971", "": null, "date_super": "3\/1\/1989", "conversion": null, "st": "1", "address": "29", "city": "187", "state": "701 WALTON DRIVE", "ZIPCODE": "Farmington", "type_store": "MO", "addrtype": "63640", "addrlocat": "Supercenter" }, "geometry": { "type": "Point", "coordinates": [ -90.4353239, 37.7894861 ] } },
{ "type": "Feature", "properties": { "storenum": "38", "OPENDATE": "12\/9\/1971", "": null, "date_super": "3\/17\/2004", "conversion": null, "st": "1", "address": "40", "city": "89", "state": "1907 SE WASHINGTON ST.", "ZIPCODE": "Idabel", "type_store": "OK", "addrtype": "74745", "addrlocat": "Supercenter" }, "geometry": { "type": "Point", "coordinates": [ -94.803579, 33.8980482 ] } },
{ "type": "Feature", "properties": { "storenum": "39", "OPENDATE": "3\/1\/1972", "": null, "date_super": null, "conversion": null, "st": "20", "address": "11", "city": "2400 SOUTH MAIN", "state": "Fort Scott", "ZIPCODE": "KS", "type_store": "66701", "addrtype": "Wal-Mart", "addrlocat": null }, "geometry": { "type": "Point", "coordinates": [ -94.7061611, 37.809703 ] } },
{ "type": "Feature", "properties": { "storenum": "40", "OPENDATE": "11\/1\/1971", "": null, "date_super": "3\/1\/1995", "conversion": null, "st": "1", "address": "29", "city": "175", "state": "1301 HWY 24 EAST", "ZIPCODE": "Moberly", "type_store": "MO", "addrtype": "65270", "addrlocat": "Supercenter" }, "geometry": { "type": "Point", "coordinates": [ -92.4204858, 39.4476471 ] } },
{ "type": "Feature", "properties": { "storenum": "41", "OPENDATE": "5\/1\/1972", "": null, "date_super": "3\/1\/1994", "conversion": null, "st": "1", "address": "40", "city": "147", "state": "4000 GREEN COUNTRY RD", "ZIPCODE": "Bartlesville", "type_store": "OK", "addrtype": "74006", "addrlocat": "Supercenter" }, "geometry": { "type": "Point", "coordinates": [ -95.9315908, 36.7404975 ] } },
{ "type": "Feature", "properties": { "storenum": "42", "OPENDATE": "2\/1\/1973", "": null, "date_super": null, "conversion": null, "st": "20", "address": "125", "city": "1705 WEST 11TH STREET", "state": "Coffeyville", "ZIPCODE": "KS", "type_store": "67337", "addrtype": "Wal-Mart", "addrlocat": null }, "geometry": { "type": "Point", "coordinates": [ -95.6440208, 37.0323285 ] } },
{ "type": "Feature", "properties": { "storenum": "43", "OPENDATE": "5\/1\/1972", "": null, "date_super": "3\/1\/2000", "conversion": null, "st": "1", "address": "20", "city": "61", "state": "521 EAST CHESTNUT ST", "ZIPCODE": "Junction City", "type_store": "KS", "addrtype": "66441", "addrlocat": "Supercenter" }, "geometry": { "type": "Point", "coordinates": [ -96.8205536, 39.0189526 ] } },
{ "type": "Feature", "properties": { "storenum": "44", "OPENDATE": "2\/1\/1972", "": null, "date_super": null, "conversion": null, "st": "29", "address": "131", "city": "1802 SOUTH BUSINESS HWY 54", "state": "Eldon", "ZIPCODE": "MO", "type_store": "65026", "addrtype": "Wal-Mart", "addrlocat": null }, "geometry": { "type": "Point", "coordinates": [ -92.5815759, 38.3483636 ] } },
{ "type": "Feature", "properties": { "storenum": "45", "OPENDATE": "8\/1\/1972", "": null, "date_super": "3\/1\/1994", "conversion": null, "st": "1", "address": "5", "city": "31", "state": "1815 EAST HIGHLAND DRIVE", "ZIPCODE": "Jonesboro", "type_store": "AR", "addrtype": "72401", "addrlocat": "Supercenter" }, "geometry": { "type": "Point", "coordinates": [ -90.6852931, 35.8189993 ] } },
{ "type": "Feature", "properties": { "storenum": "46", "OPENDATE": "8\/1\/1972", "": null, "date_super": "3\/1\/1999", "conversion": null, "st": "1", "address": "29", "city": "167", "state": "2451 S. SPRINGFIELD", "ZIPCODE": "Bolivar", "type_store": "MO", "addrtype": "65613", "addrlocat": "Supercenter" }, "geometry": { "type": "Point", "coordinates": [ -93.4039876, 37.5917268 ] } },
{ "type": "Feature", "properties": { "storenum": "47", "OPENDATE": "7\/1\/1972", "": null, "date_super": "3\/14\/2001", "conversion": null, "st": "1", "address": "40", "city": "135", "state": "1101 WEST RUTH AVE", "ZIPCODE": "Sallisaw", "type_store": "OK", "addrtype": "74955", "addrlocat": "Supercenter" }, "geometry": { "type": "Point", "coordinates": [ -94.8019361, 35.4509678 ] } },
{ "type": "Feature", "properties": { "storenum": "48", "OPENDATE": "11\/1\/1972", "": null, "date_super": "3\/1\/1999", "conversion": null, "st": "1", "address": "29", "city": "9", "state": "885 HIGHWAY 60", "ZIPCODE": "Monett", "type_store": "MO", "addrtype": "65708", "addrlocat": "Supercenter" }, "geometry": { "type": "Point", "coordinates": [ -93.9031201, 36.9117432 ] } },
{ "type": "Feature", "properties": { "storenum": "49", "OPENDATE": "10\/1\/1972", "": null, "date_super": "3\/1\/2002", "conversion": null, "st": "1", "address": "40", "city": "23", "state": "1911 E.JACKSON ST.", "ZIPCODE": "Hugo", "type_store": "OK", "addrtype": "74743", "addrlocat": "Supercenter" }, "geometry": { "type": "Point", "coordinates": [ -95.4879906, 34.0072263 ] } },
{ "type": "Feature", "properties": { "storenum": "50", "OPENDATE": "9\/1\/1973", "": null, "date_super": "1\/22\/2003", "conversion": null, "st": "1", "address": "40", "city": "35", "state": "268 SO. 7TH ST.", "ZIPCODE": "Vinita", "type_store": "OK", "addrtype": "74301", "addrlocat": "Supercenter" }, "geometry": { "type": "Point", "coordinates": [ -95.1402847, 36.6318623 ] } },
{ "type": "Feature", "properties": { "storenum": "51", "OPENDATE": "5\/1\/1973", "": null, "date_super": "3\/1\/1998", "conversion": null, "st": "1", "address": "29", "city": "27", "state": "1701 NORTH BLUFF STREET", "ZIPCODE": "Fulton", "type_store": "MO", "addrtype": "65251", "addrlocat": "Supercenter" }, "geometry": { "type": "Point", "coordinates": [ -91.9457599, 38.864125 ] } },
{ "type": "Feature", "properties": { "storenum": "52", "OPENDATE": "7\/1\/1972", "": null, "date_super": "3\/1\/2000", "conversion": null, "st": "1", "address": "5", "city": "51", "state": "1601 ALBERT PIKE BLV", "ZIPCODE": "Hot Springs", "type_store": "AR", "addrtype": "71913", "addrlocat": "Supercenter" }, "geometry": { "type": "Point", "coordinates": [ -93.0893302, 34.4909175 ] } },
{ "type": "Feature", "properties": { "storenum": "54", "OPENDATE": "6\/1\/1972", "": null, "date_super": "3\/1\/1992", "conversion": null, "st": "1", "address": "5", "city": "143", "state": "2004 SOUTH PLEASANT", "ZIPCODE": "Springdale", "type_store": "AR", "addrtype": "72764", "addrlocat": "Supercenter" }, "geometry": { "type": "Point", "coordinates": [ -94.1467693, 36.1663269 ] } },
{ "type": "Feature", "properties": { "storenum": "55", "OPENDATE": "10\/1\/1972", "": null, "date_super": null, "conversion": null, "st": "5", "address": "83", "city": "1555 EAST MAIN", "state": "Booneville", "ZIPCODE": "AR", "type_store": "72927", "addrtype": "Wal-Mart", "addrlocat": null }, "geometry": { "type": "Point", "coordinates": [ -93.901839, 35.1433659 ] } },
{ "type": "Feature", "properties": { "storenum": "56", "OPENDATE": "8\/1\/1973", "": null, "date_super": "3\/17\/2004", "conversion": null, "st": "1", "address": "29", "city": "67", "state": "1309 NW 12TH AVE", "ZIPCODE": "Ava", "type_store": "MO", "addrtype": "65608", "addrlocat": "Supercenter" }, "geometry": { "type": "Point", "coordinates": [ -92.676536, 36.9594172 ] } },
{ "type": "Feature", "properties": { "storenum": "57", "OPENDATE": "10\/1\/1972", "": null, "date_super": null, "conversion": null, "st": "5", "address": "75", "city": "1600 WEST MAIN", "state": "Walnut Ridge", "ZIPCODE": "AR", "type_store": "72476", "addrtype": "Wal-Mart", "addrlocat": null }, "geometry": { "type": "Point", "coordinates": [ -90.9743975, 36.0766404 ] } },
{ "type": "Feature", "properties": { "storenum": "58", "OPENDATE": "5\/1\/1973", "": null, "date_super": "10\/26\/2005", "conversion": null, "st": "1", "address": "5", "city": "115", "state": "2409 EAST MAIN STREET", "ZIPCODE": "Russellville", "type_store": "AR", "addrtype": "72802", "addrlocat": "Supercenter" }, "geometry": { "type": "Point", "coordinates": [ -93.1052745, 35.2803277 ] } },
{ "type": "Feature", "properties": { "storenum": "59", "OPENDATE": "5\/1\/1972", "": null, "date_super": "3\/1\/1996", "conversion": null, "st": "1", "address": "29", "city": "97", "state": "1501 SOUTH RANGELINE ROAD", "ZIPCODE": "Joplin", "type_store": "MO", "addrtype": "64804", "addrlocat": "Supercenter" }, "geometry": { "type": "Point", "coordinates": [ -94.4727676, 37.072882 ] } },
{ "type": "Feature", "properties": { "storenum": "60", "OPENDATE": "3\/1\/1975", "": null, "date_super": "3\/1\/1996", "conversion": null, "st": "1", "address": "29", "city": "113", "state": "101 HWY 47 EAST", "ZIPCODE": "Troy", "type_store": "MO", "addrtype": "63379", "addrlocat": "Supercenter" }, "geometry": { "type": "Point", "coordinates": [ -90.9820378, 38.9886352 ] } },
{ "type": "Feature", "properties": { "storenum": "61", "OPENDATE": "11\/1\/1972", "": null, "date_super": "3\/1\/1993", "conversion": null, "st": "1", "address": "29", "city": "101", "state": "301 E. COOPER AVENUE", "ZIPCODE": "Warrensburg", "type_store": "MO", "addrtype": "64093", "addrlocat": "Supercenter" }, "geometry": { "type": "Point", "coordinates": [ -93.7355134, 38.7811825 ] } },
{ "type": "Feature", "properties": { "storenum": "62", "OPENDATE": "11\/1\/1972", "": null, "date_super": "3\/1\/1999", "conversion": null, "st": "1", "address": "5", "city": "93", "state": "3700 EAST HWY 18", "ZIPCODE": "Blytheville", "type_store": "AR", "addrtype": "72315", "addrlocat": "Supercenter" }, "geometry": { "type": "Point", "coordinates": [ -89.8721681, 35.9310281 ] } },
{ "type": "Feature", "properties": { "storenum": "63", "OPENDATE": "9\/1\/1973", "": null, "date_super": "3\/1\/1988", "conversion": null, "st": "1", "address": "40", "city": "145", "state": "410 SOUTH DEWEY", "ZIPCODE": "Wagoner", "type_store": "OK", "addrtype": "74467", "addrlocat": "Supercenter" }, "geometry": { "type": "Point", "coordinates": [ -95.3975356, 35.9566782 ] } },
{ "type": "Feature", "properties": { "storenum": "64", "OPENDATE": "2\/1\/1973", "": null, "date_super": null, "conversion": null, "st": "47", "address": "75", "city": "100 SOUTH DUPREE", "state": "Brownsville", "ZIPCODE": "TN", "type_store": "38012", "addrtype": "Wal-Mart", "addrlocat": null }, "geometry": { "type": "Point", "coordinates": [ -89.2389824, 35.5917044 ] } },
{ "type": "Feature", "properties": { "storenum": "65", "OPENDATE": "7\/3\/1973", "": null, "date_super": "3\/1\/1994", "conversion": null, "st": "1", "address": "29", "city": "71", "state": "350 PARKRIDGE ROAD", "ZIPCODE": "Sullivan", "type_store": "MO", "addrtype": "63080", "addrlocat": "Supercenter" }, "geometry": { "type": "Point", "coordinates": [ -91.1547599, 38.2207498 ] } },
{ "type": "Feature", "properties": { "storenum": "66", "OPENDATE": "8\/1\/1973", "": null, "date_super": "7\/17\/2002", "conversion": null, "st": "1", "address": "5", "city": "71", "state": "1230 MARKET STREET", "ZIPCODE": "Clarksville", "type_store": "AR", "addrtype": "72830", "addrlocat": "Supercenter" }, "geometry": { "type": "Point", "coordinates": [ -93.4603541, 35.4486868 ] } },
{ "type": "Feature", "properties": { "storenum": "67", "OPENDATE": "7\/1\/1973", "": null, "date_super": "3\/1\/1995", "conversion": null, "st": "1", "address": "5", "city": "113", "state": "600 HWY 71 NORTH", "ZIPCODE": "Mena", "type_store": "AR", "addrtype": "71953", "addrlocat": "Supercenter" }, "geometry": { "type": "Point", "coordinates": [ -94.208011, 34.5486994 ] } },
{ "type": "Feature", "properties": { "storenum": "68", "OPENDATE": "8\/1\/1973", "": null, "date_super": "8\/20\/2003", "conversion": null, "st": "1", "address": "5", "city": "37", "state": "800 HWY 64 EAST", "ZIPCODE": "Wynne", "type_store": "AR", "addrtype": "72396", "addrlocat": "Supercenter" }, "geometry": { "type": "Point", "coordinates": [ -90.777437, 35.253012 ] } },
{ "type": "Feature", "properties": { "storenum": "69", "OPENDATE": "12\/1\/1973", "": null, "date_super": "3\/1\/1993", "conversion": null, "st": "1", "address": "29", "city": "99", "state": "650 SOUTH TRUMAN BLVD", "ZIPCODE": "Festus", "type_store": "MO", "addrtype": "63028", "addrlocat": "Supercenter" }, "geometry": { "type": "Point", "coordinates": [ -90.3879656, 38.2119571 ] } },
{ "type": "Feature", "properties": { "storenum": "70", "OPENDATE": "7\/1\/1974", "": null, "date_super": "3\/1\/1997", "conversion": null, "st": "1", "address": "5", "city": "35", "state": "798 WEST SERVICE ROAD", "ZIPCODE": "West Memphis", "type_store": "AR", "addrtype": "72301", "addrlocat": "Supercenter" }, "geometry": { "type": "Point", "coordinates": [ -90.1999916, 35.1654527 ] } },
{ "type": "Feature", "properties": { "storenum": "71", "OPENDATE": "11\/1\/1973", "": null, "date_super": "3\/1\/1994", "conversion": null, "st": "1", "address": "5", "city": "121", "state": "1415 HWY 67 SOUTH", "ZIPCODE": "Pocahontas", "type_store": "AR", "addrtype": "72455", "addrlocat": "Supercenter" }, "geometry": { "type": "Point", "coordinates": [ -90.9633187, 36.2487333 ] } },
{ "type": "Feature", "properties": { "storenum": "72", "OPENDATE": "1\/1\/1974", "": null, "date_super": "3\/1\/1994", "conversion": null, "st": "1", "address": "20", "city": "37", "state": "2710 N BROADWAY", "ZIPCODE": "Pittsburg", "type_store": "KS", "addrtype": "66762", "addrlocat": "Supercenter" }, "geometry": { "type": "Point", "coordinates": [ -94.7022403, 37.4339921 ] } },
{ "type": "Feature", "properties": { "storenum": "73", "OPENDATE": "10\/1\/1974", "": null, "date_super": "3\/1\/1999", "conversion": null, "st": "1", "address": "40", "city": "37", "state": "1002 WEST TAFT", "ZIPCODE": "Sapulpa", "type_store": "OK", "addrtype": "74066", "addrlocat": "Supercenter" }, "geometry": { "type": "Point", "coordinates": [ -96.1352233, 35.9863113 ] } },
{ "type": "Feature", "properties": { "storenum": "74", "OPENDATE": "11\/1\/1973", "": null, "date_super": null, "conversion": null, "st": "5", "address": "93", "city": "1051 WEST KEISER AVENUE", "state": "Osceola", "ZIPCODE": "AR", "type_store": "72370", "addrtype": "Wal-Mart", "addrlocat": null }, "geometry": { "type": "Point", "coordinates": [ -89.984133, 35.696603 ] } },
{ "type": "Feature", "properties": { "storenum": "75", "OPENDATE": "11\/13\/1984", "": null, "date_super": "3\/1\/1998", "conversion": null, "st": "1", "address": "22", "city": "79", "state": "3636 MONROE HIGHWAY", "ZIPCODE": "Pineville", "type_store": "LA", "addrtype": "71360", "addrlocat": "Supercenter" }, "geometry": { "type": "Point", "coordinates": [ -92.4066033, 31.3671355 ] } },
{ "type": "Feature", "properties": { "storenum": "76", "OPENDATE": "11\/1\/1973", "": null, "date_super": "3\/1\/1993", "conversion": null, "st": "1", "address": "5", "city": "15", "state": "1000 WEST TRIMBLE", "ZIPCODE": "Berryville", "type_store": "AR", "addrtype": "72616", "addrlocat": "Supercenter" }, "geometry": { "type": "Point", "coordinates": [ -93.5871454, 36.3762601 ] } },
{ "type": "Feature", "properties": { "storenum": "77", "OPENDATE": "10\/30\/1979", "": null, "date_super": "7\/21\/2004", "conversion": null, "st": "1", "address": "48", "city": "491", "state": "3701 NORTH MAIN ST.", "ZIPCODE": "Taylor", "type_store": "TX", "addrtype": "76574", "addrlocat": "Supercenter" }, "geometry": { "type": "Point", "coordinates": [ -97.418442, 30.598574 ] } },
{ "type": "Feature", "properties": { "storenum": "78", "OPENDATE": "9\/1\/1973", "": null, "date_super": null, "conversion": null, "st": "29", "address": "225", "city": "1331 SPUR DR\/ BUS. RT US HWY66", "state": "Marshfield", "ZIPCODE": "MO", "type_store": "65706", "addrtype": "Wal-Mart", "addrlocat": null }, "geometry": { "type": "Point", "coordinates": [ -92.9071209, 37.338658 ] } },
{ "type": "Feature", "properties": { "storenum": "79", "OPENDATE": "4\/1\/1974", "": null, "date_super": "3\/1\/1999", "conversion": null, "st": "1", "address": "29", "city": "97", "state": "2623 WEST 7TH STREET", "ZIPCODE": "Joplin", "type_store": "MO", "addrtype": "64801", "addrlocat": "Supercenter" }, "geometry": { "type": "Point", "coordinates": [ -94.5458739, 37.0870255 ] } },
{ "type": "Feature", "properties": { "storenum": "80", "OPENDATE": "6\/1\/1973", "": null, "date_super": null, "conversion": null, "st": "29", "address": "19", "city": "401 N STADIUM BL\/BISCAYNE MALL", "state": "Columbia", "ZIPCODE": "MO", "type_store": "65201", "addrtype": "Wal-Mart", "addrlocat": null }, "geometry": { "type": "Point", "coordinates": [ -92.3340724, 38.9517053 ] } },
{ "type": "Feature", "properties": { "storenum": "81", "OPENDATE": "6\/1\/1973", "": null, "date_super": "10\/26\/2005", "conversion": null, "st": "1", "address": "40", "city": "1", "state": "ROUTE 6 BOX 1895", "ZIPCODE": "Stilwell", "type_store": "OK", "addrtype": "74960", "addrlocat": "Supercenter" }, "geometry": { "type": "Point", "coordinates": [ -94.6285553, 35.81453 ] } },
{ "type": "Feature", "properties": { "storenum": "82", "OPENDATE": "4\/1\/1974", "": null, "date_super": "3\/1\/1998", "conversion": null, "st": "1", "address": "29", "city": "157", "state": "1750 S. PERRYVILLE", "ZIPCODE": "Perryville", "type_store": "MO", "addrtype": "63775", "addrlocat": "Supercenter" }, "geometry": { "type": "Point", "coordinates": [ -89.8960927, 37.7056651 ] } },
{ "type": "Feature", "properties": { "storenum": "83", "OPENDATE": "8\/1\/1974", "": null, "date_super": "8\/20\/2003", "conversion": null, "st": "1", "address": "5", "city": "27", "state": "60 79-BYPASS NORTH", "ZIPCODE": "Magnolia", "type_store": "AR", "addrtype": "71753", "addrlocat": "Supercenter" }, "geometry": { "type": "Point", "coordinates": [ -93.2975539, 33.1757029 ] } },
{ "type": "Feature", "properties": { "storenum": "84", "OPENDATE": "5\/1\/1974", "": null, "date_super": null, "conversion": null, "st": "5", "address": "95", "city": "PINECREST PLAZA SHOPPING CTR", "state": "Brinkley", "ZIPCODE": "AR", "type_store": "72021", "addrtype": "Wal-Mart", "addrlocat": null }, "geometry": { "type": "Point", "coordinates": [ -91.1945688, 34.8878719 ] } },
{ "type": "Feature", "properties": { "storenum": "85", "OPENDATE": "4\/1\/1974", "": null, "date_super": "3\/1\/1996", "conversion": null, "st": "1", "address": "5", "city": "125", "state": "17309 I-30", "ZIPCODE": "Benton", "type_store": "AR", "addrtype": "72015", "addrlocat": "Supercenter" }, "geometry": { "type": "Point", "coordinates": [ -92.5796424, 34.5763095 ] } },
{ "type": "Feature", "properties": { "storenum": "86", "OPENDATE": "12\/1\/1973", "": null, "date_super": "3\/1\/1994", "conversion": null, "st": "1", "address": "29", "city": "77", "state": "2825 N KANSAS EXPRESSWAY", "ZIPCODE": "Springfield", "type_store": "MO", "addrtype": "65803", "addrlocat": "Supercenter" }, "geometry": { "type": "Point", "coordinates": [ -93.3140859, 37.2486596 ] } },
{ "type": "Feature", "properties": { "storenum": "87", "OPENDATE": "7\/1\/1974", "": null, "date_super": "3\/1\/1999", "conversion": null, "st": "1", "address": "22", "city": "119", "state": "1379 HOMER ROAD", "ZIPCODE": "Minden", "type_store": "LA", "addrtype": "71055", "addrlocat": "Supercenter" }, "geometry": { "type": "Point", "coordinates": [ -93.2512595, 32.6280537 ] } },
{ "type": "Feature", "properties": { "storenum": "88", "OPENDATE": "2\/1\/1974", "": null, "date_super": "3\/1\/1994", "conversion": null, "st": "1", "address": "29", "city": "229", "state": "2100 NORTH MAIN", "ZIPCODE": "Mt. Grove", "type_store": "MO", "addrtype": "65711", "addrlocat": "Supercenter" }, "geometry": { "type": "Point", "coordinates": [ -92.2595335, 37.1498889 ] } },
{ "type": "Feature", "properties": { "storenum": "89", "OPENDATE": "2\/1\/1974", "": null, "date_super": "4\/13\/2005", "conversion": null, "st": "1", "address": "29", "city": "29", "state": "94 CECIL STREET", "ZIPCODE": "Camdenton", "type_store": "MO", "addrtype": "65020", "addrlocat": "Supercenter" }, "geometry": { "type": "Point", "coordinates": [ -92.7228888, 38.0256293 ] } },
{ "type": "Feature", "properties": { "storenum": "90", "OPENDATE": "4\/1\/1974", "": null, "date_super": "3\/1\/1995", "conversion": null, "st": "1", "address": "40", "city": "41", "state": "2115 S MAIN ST", "ZIPCODE": "Grove", "type_store": "OK", "addrtype": "74344", "addrlocat": "Supercenter" }, "geometry": { "type": "Point", "coordinates": [ -94.7657228, 36.5762839 ] } },
{ "type": "Feature", "properties": { "storenum": "91", "OPENDATE": "9\/1\/1974", "": null, "date_super": "3\/1\/1994", "conversion": null, "st": "1", "address": "5", "city": "123", "state": "205 DEADRICK ROAD", "ZIPCODE": "Forrest City", "type_store": "AR", "addrtype": "72335", "addrlocat": "Supercenter" }, "geometry": { "type": "Point", "coordinates": [ -90.7935608, 35.0280681 ] } },
{ "type": "Feature", "properties": { "storenum": "92", "OPENDATE": "4\/1\/1974", "": null, "date_super": null, "conversion": null, "st": "29", "address": "109", "city": "3020 SOUTH ELLIOTT", "state": "Aurora", "ZIPCODE": "MO", "type_store": "65605", "addrtype": "Wal-Mart", "addrlocat": null }, "geometry": { "type": "Point", "coordinates": [ -93.7149545, 36.9464642 ] } },
{ "type": "Feature", "properties": { "storenum": "93", "OPENDATE": "10\/1\/1974", "": null, "date_super": null, "conversion": null, "st": "47", "address": "167", "city": "975 US HIGHWAY 51 NORTH", "state": "Covington", "ZIPCODE": "TN", "type_store": "38019", "addrtype": "Wal-Mart", "addrlocat": null }, "geometry": { "type": "Point", "coordinates": [ -89.6427989, 35.5834422 ] } },
{ "type": "Feature", "properties": { "storenum": "94", "OPENDATE": "7\/1\/1974", "": null, "date_super": "3\/1\/1997", "conversion": null, "st": "1", "address": "47", "city": "157", "state": "8445 HWY 51 NORTH", "ZIPCODE": "Millington", "type_store": "TN", "addrtype": "38053", "addrlocat": "Supercenter" }, "geometry": { "type": "Point", "coordinates": [ -89.8977999, 35.3574856 ] } },
{ "type": "Feature", "properties": { "storenum": "95", "OPENDATE": "10\/1\/1974", "": null, "date_super": "5\/21\/2003", "conversion": null, "st": "1", "address": "29", "city": "187", "state": "407 NO. STATE ST", "ZIPCODE": "Desloge", "type_store": "MO", "addrtype": "63601", "addrlocat": "Supercenter" }, "geometry": { "type": "Point", "coordinates": [ -90.5132461, 37.8838654 ] } },
{ "type": "Feature", "properties": { "storenum": "96", "OPENDATE": "10\/1\/1974", "": null, "date_super": "3\/1\/1994", "conversion": null, "st": "1", "address": "29", "city": "37", "state": "1700 NORTH 291 HIGHWAY", "ZIPCODE": "Harrisonville", "type_store": "MO", "addrtype": "64701", "addrlocat": "Supercenter" }, "geometry": { "type": "Point", "coordinates": [ -94.3693981, 38.6660998 ] } },
{ "type": "Feature", "properties": { "storenum": "97", "OPENDATE": "11\/1\/1974", "": null, "date_super": "3\/1\/1994", "conversion": null, "st": "1", "address": "47", "city": "97", "state": "628 HWY 51 BYPASS", "ZIPCODE": "Ripley", "type_store": "TN", "addrtype": "38063", "addrlocat": "Supercenter" }, "geometry": { "type": "Point", "coordinates": [ -82.6321137, 36.563566 ] } },
{ "type": "Feature", "properties": { "storenum": "98", "OPENDATE": "2\/1\/1975", "": null, "date_super": null, "conversion": null, "st": "22", "address": "67", "city": "2030 EAST MADISON", "state": "Bastrop", "ZIPCODE": "LA", "type_store": "71220", "addrtype": "Wal-Mart", "addrlocat": null }, "geometry": { "type": "Point", "coordinates": [ -91.8877557, 32.7778468 ] } },
{ "type": "Feature", "properties": { "storenum": "99", "OPENDATE": "2\/1\/1976", "": null, "date_super": "3\/1\/1995", "conversion": null, "st": "1", "address": "29", "city": "71", "state": "1445 E CENTRAL", "ZIPCODE": "Union", "type_store": "MO", "addrtype": "63084", "addrlocat": "Supercenter" }, "geometry": { "type": "Point", "coordinates": [ -90.9700812, 38.4344349 ] } },
{ "type": "Feature", "properties": { "storenum": "100", "OPENDATE": "10\/1\/1974", "": null, "date_super": "3\/1\/1992", "conversion": null, "st": "1", "address": "5", "city": "7", "state": "406 SOUTH WALTON BLVD", "ZIPCODE": "Bentonville", "type_store": "AR", "addrtype": "72712", "addrlocat": "Supercenter" }, "geometry": { "type": "Point", "coordinates": [ -94.224657, 36.3681889 ] } },
{ "type": "Feature", "properties": { "storenum": "101", "OPENDATE": "2\/1\/1976", "": null, "date_super": "3\/1\/1994", "conversion": null, "st": "1", "address": "29", "city": "161", "state": "500 SOUTH BISHOP", "ZIPCODE": "Rolla", "type_store": "MO", "addrtype": "65401", "addrlocat": "Supercenter" }, "geometry": { "type": "Point", "coordinates": [ -91.7790712, 37.9375867 ] } },
{ "type": "Feature", "properties": { "storenum": "102", "OPENDATE": "9\/1\/1974", "": null, "date_super": "3\/1\/1995", "conversion": null, "st": "1", "address": "5", "city": "1", "state": "406 E 22ND STREET", "ZIPCODE": "Stuttgart", "type_store": "AR", "addrtype": "72160", "addrlocat": "Supercenter" }, "geometry": { "type": "Point", "coordinates": [ -91.5490832, 34.4770403 ] } },
{ "type": "Feature", "properties": { "storenum": "103", "OPENDATE": "8\/1\/1975", "": null, "date_super": "8\/25\/2004", "conversion": null, "st": "1", "address": "40", "city": "125", "state": "196 SHAWNEE MALL DRIVE", "ZIPCODE": "Shawnee", "type_store": "OK", "addrtype": "74804", "addrlocat": "Supercenter" }, "geometry": { "type": "Point", "coordinates": [ -96.9217316, 35.3868776 ] } },
{ "type": "Feature", "properties": { "storenum": "104", "OPENDATE": "7\/1\/1974", "": null, "date_super": null, "conversion": null, "st": "47", "address": "53", "city": "15427 SO. FIRST STREET", "state": "Milan", "ZIPCODE": "TN", "type_store": "38358", "addrtype": "Wal-Mart", "addrlocat": null }, "geometry": { "type": "Point", "coordinates": [ -88.7480833, 35.876198 ] } },
{ "type": "Feature", "properties": { "storenum": "105", "OPENDATE": "8\/1\/1974", "": null, "date_super": "3\/1\/1994", "conversion": null, "st": "1", "address": "28", "city": "3", "state": "2301 HARPER ROAD", "ZIPCODE": "Corinth", "type_store": "MS", "addrtype": "38834", "addrlocat": "Supercenter" }, "geometry": { "type": "Point", "coordinates": [ -88.5021214, 34.9099226 ] } },
{ "type": "Feature", "properties": { "storenum": "106", "OPENDATE": "8\/1\/1974", "": null, "date_super": "10\/20\/2004", "conversion": null, "st": "1", "address": "21", "city": "75", "state": "1405 MIDDLE ROAD", "ZIPCODE": "Fulton", "type_store": "KY", "addrtype": "42041", "addrlocat": "Supercenter" }, "geometry": { "type": "Point", "coordinates": [ -88.9001537, 36.5174277 ] } },
{ "type": "Feature", "properties": { "storenum": "107", "OPENDATE": "10\/1\/1974", "": null, "date_super": null, "conversion": null, "st": "47", "address": "183", "city": "850 WAL-MART DRIVE", "state": "Martin", "ZIPCODE": "TN", "type_store": "38237", "addrtype": "Wal-Mart", "addrlocat": null }, "geometry": { "type": "Point", "coordinates": [ -88.8503379, 36.3433965 ] } },
{ "type": "Feature", "properties": { "storenum": "108", "OPENDATE": "2\/1\/1975", "": null, "date_super": null, "conversion": null, "st": "40", "address": "83", "city": "1618 SOUTH DIVISION", "state": "Guthrie", "ZIPCODE": "OK", "type_store": "73044", "addrtype": "Wal-Mart", "addrlocat": null }, "geometry": { "type": "Point", "coordinates": [ -97.421995, 35.8626152 ] } },
{ "type": "Feature", "properties": { "storenum": "109", "OPENDATE": "2\/1\/1975", "": null, "date_super": "3\/1\/1995", "conversion": null, "st": "1", "address": "29", "city": "63", "state": "2000 NORTH WALNUT", "ZIPCODE": "Cameron", "type_store": "MO", "addrtype": "64429", "addrlocat": "Supercenter" }, "geometry": { "type": "Point", "coordinates": [ -94.2315455, 39.7581402 ] } },
{ "type": "Feature", "properties": { "storenum": "111", "OPENDATE": "11\/1\/1975", "": null, "date_super": "6\/25\/2003", "conversion": null, "st": "1", "address": "20", "city": "133", "state": "2700 SOUTH SANTA FE", "ZIPCODE": "Chanute", "type_store": "KS", "addrtype": "66720", "addrlocat": "Supercenter" }, "geometry": { "type": "Point", "coordinates": [ -95.4509812, 37.653663 ] } },
{ "type": "Feature", "properties": { "storenum": "112", "OPENDATE": "4\/1\/1975", "": null, "date_super": "3\/1\/2002", "conversion": null, "st": "1", "address": "28", "city": "105", "state": "1010 HWY 12 WEST", "ZIPCODE": "Starkville", "type_store": "MS", "addrtype": "39759", "addrlocat": "Supercenter" }, "geometry": { "type": "Point", "coordinates": [ -88.8514516, 33.4444796 ] } },
{ "type": "Feature", "properties": { "storenum": "113", "OPENDATE": "7\/1\/1975", "": null, "date_super": "1\/27\/2006", "conversion": null, "st": "1", "address": "40", "city": "51", "state": "2001 SO. 1ST ST.", "ZIPCODE": "Chickasha", "type_store": "OK", "addrtype": "73018", "addrlocat": "Supercenter" }, "geometry": { "type": "Point", "coordinates": [ -97.9310754, 35.0308662 ] } },
{ "type": "Feature", "properties": { "storenum": "114", "OPENDATE": "4\/1\/1975", "": null, "date_super": null, "conversion": null, "st": "28", "address": "117", "city": "200 WALMART CIRCLE", "state": "Booneville", "ZIPCODE": "MS", "type_store": "38829", "addrtype": "Wal-Mart", "addrlocat": null }, "geometry": { "type": "Point", "coordinates": [ -88.5640499, 34.6763697 ] } },
{ "type": "Feature", "properties": { "storenum": "115", "OPENDATE": "9\/1\/1976", "": null, "date_super": null, "conversion": null, "st": "28", "address": "25", "city": "1445 HWY 45 NORTH", "state": "West Point", "ZIPCODE": "MS", "type_store": "39773", "addrtype": "Wal-Mart", "addrlocat": null }, "geometry": { "type": "Point", "coordinates": [ -88.6603124, 33.63427 ] } },
{ "type": "Feature", "properties": { "storenum": "116", "OPENDATE": "8\/1\/1975", "": null, "date_super": null, "conversion": null, "st": "22", "address": "17", "city": "929 SOUTH PINE STREET", "state": "Vivian", "ZIPCODE": "LA", "type_store": "71082", "addrtype": "Wal-Mart", "addrlocat": null }, "geometry": { "type": "Point", "coordinates": [ -93.9866352, 32.8577744 ] } },
{ "type": "Feature", "properties": { "storenum": "117", "OPENDATE": "6\/1\/1975", "": null, "date_super": null, "conversion": null, "st": "40", "address": "89", "city": "501 SOUTH PARK DRIVE", "state": "Broken Bow", "ZIPCODE": "OK", "type_store": "74728", "addrtype": "Wal-Mart", "addrlocat": null }, "geometry": { "type": "Point", "coordinates": [ -94.7380009, 34.0223866 ] } },
{ "type": "Feature", "properties": { "storenum": "118", "OPENDATE": "4\/1\/1976", "": null, "date_super": "3\/1\/1993", "conversion": null, "st": "1", "address": "28", "city": "95", "state": "1515 US HWY 278 EAST", "ZIPCODE": "Amory", "type_store": "MS", "addrtype": "38821", "addrlocat": "Supercenter" }, "geometry": { "type": "Point", "coordinates": [ -88.456973, 33.9686987 ] } },
{ "type": "Feature", "properties": { "storenum": "119", "OPENDATE": "3\/1\/1976", "": null, "date_super": "3\/1\/1994", "conversion": null, "st": "1", "address": "5", "city": "63", "state": "3150 HARRISON STREET", "ZIPCODE": "Batesville", "type_store": "AR", "addrtype": "72501", "addrlocat": "Supercenter" }, "geometry": { "type": "Point", "coordinates": [ -91.6141803, 35.7626465 ] } },
{ "type": "Feature", "properties": { "storenum": "120", "OPENDATE": "3\/1\/1976", "": null, "date_super": null, "conversion": null, "st": "47", "address": "53", "city": "2716 NORTH CENTRAL AVENUE", "state": "Humboldt", "ZIPCODE": "TN", "type_store": "38343", "addrtype": "Wal-Mart", "addrlocat": null }, "geometry": { "type": "Point", "coordinates": [ -88.9117767, 35.840821 ] } },
{ "type": "Feature", "properties": { "storenum": "121", "OPENDATE": "9\/1\/1975", "": null, "date_super": "3\/1\/1994", "conversion": null, "st": "1", "address": "40", "city": "111", "state": "1800 SOUTH WOOD DRIVE", "ZIPCODE": "Okmulgee", "type_store": "OK", "addrtype": "74447", "addrlocat": "Supercenter" }, "geometry": { "type": "Point", "coordinates": [ -95.9643373, 35.6057883 ] } },
{ "type": "Feature", "properties": { "storenum": "122", "OPENDATE": "11\/1\/1975", "": null, "date_super": "3\/1\/1999", "conversion": null, "st": "1", "address": "29", "city": "31", "state": "3051 EAST JACKSON BLVD.", "ZIPCODE": "Jackson", "type_store": "MO", "addrtype": "63755", "addrlocat": "Supercenter" }, "geometry": { "type": "Point", "coordinates": [ -89.6346353, 37.3620839 ] } },
{ "type": "Feature", "properties": { "storenum": "123", "OPENDATE": "6\/1\/1975", "": null, "date_super": "10\/29\/2003", "conversion": null, "st": "1", "address": "40", "city": "133", "state": "1500 E. WRANGLER BLVD", "ZIPCODE": "Seminole", "type_store": "OK", "addrtype": "74868", "addrlocat": "Supercenter" }, "geometry": { "type": "Point", "coordinates": [ -96.654527, 35.2483575 ] } },
{ "type": "Feature", "properties": { "storenum": "124", "OPENDATE": "3\/1\/1975", "": null, "date_super": "3\/1\/1999", "conversion": null, "st": "1", "address": "5", "city": "119", "state": "8801 BASELINE ROAD", "ZIPCODE": "Little Rock", "type_store": "AR", "addrtype": "72209", "addrlocat": "Supercenter" }, "geometry": { "type": "Point", "coordinates": [ -92.3770659, 34.6675423 ] } },
{ "type": "Feature", "properties": { "storenum": "125", "OPENDATE": "4\/1\/1975", "": null, "date_super": "3\/1\/1999", "conversion": null, "st": "1", "address": "5", "city": "131", "state": "2425 SOUTH ZERO ST", "ZIPCODE": "Fort Smith", "type_store": "AR", "addrtype": "72901", "addrlocat": "Supercenter" }, "geometry": { "type": "Point", "coordinates": [ -94.4064742, 35.3290122 ] } },
{ "type": "Feature", "properties": { "storenum": "126", "OPENDATE": "3\/1\/1976", "": null, "date_super": null, "conversion": null, "st": "5", "address": "119", "city": "700 SOUTH BOWMAN BLV", "state": "Little Rock", "ZIPCODE": "AR", "type_store": "72211", "addrtype": "Wal-Mart", "addrlocat": null }, "geometry": { "type": "Point", "coordinates": [ -92.4101162, 34.7484792 ] } },
{ "type": "Feature", "properties": { "storenum": "127", "OPENDATE": "2\/1\/1976", "": null, "date_super": "4\/13\/2005", "conversion": null, "st": "1", "address": "5", "city": "59", "state": "1910 MARTIN LUTHER KING BLVD", "ZIPCODE": "Malvern", "type_store": "AR", "addrtype": "72104", "addrlocat": "Supercenter" }, "geometry": { "type": "Point", "coordinates": [ -92.8327846, 34.390629 ] } },
{ "type": "Feature", "properties": { "storenum": "128", "OPENDATE": "8\/1\/1978", "": null, "date_super": "3\/1\/1998", "conversion": null, "st": "1", "address": "5", "city": "31", "state": "1911 WEST PARKER RD", "ZIPCODE": "Jonesboro", "type_store": "AR", "addrtype": "72404", "addrlocat": "Supercenter" }, "geometry": { "type": "Point", "coordinates": [ -90.7344161, 35.8157329 ] } },
{ "type": "Feature", "properties": { "storenum": "129", "OPENDATE": "7\/1\/1975", "": null, "date_super": "3\/1\/1994", "conversion": null, "st": "1", "address": "40", "city": "19", "state": "1715 NORTH COMMERCE STREET", "ZIPCODE": "Ardmore", "type_store": "OK", "addrtype": "73401", "addrlocat": "Supercenter" }, "geometry": { "type": "Point", "coordinates": [ -97.1453807, 34.1932299 ] } },
{ "type": "Feature", "properties": { "storenum": "130", "OPENDATE": "7\/1\/1975", "": null, "date_super": "8\/25\/2004", "conversion": null, "st": "1", "address": "40", "city": "101", "state": "1000 WEST SHAWNEE ST", "ZIPCODE": "Muskogee", "type_store": "OK", "addrtype": "74403", "addrlocat": "Supercenter" }, "geometry": { "type": "Point", "coordinates": [ -95.3720325, 35.7717892 ] } },
{ "type": "Feature", "properties": { "storenum": "131", "OPENDATE": "11\/1\/1975", "": null, "date_super": "3\/1\/1990", "conversion": null, "st": "1", "address": "48", "city": "449", "state": "2311 SOUTH JEFFERSON", "ZIPCODE": "Mt. Pleasant", "type_store": "TX", "addrtype": "75455", "addrlocat": "Supercenter" }, "geometry": { "type": "Point", "coordinates": [ -94.9646847, 33.1343843 ] } },
{ "type": "Feature", "properties": { "storenum": "132", "OPENDATE": "2\/1\/1976", "": null, "date_super": null, "conversion": null, "st": "40", "address": "73", "city": "1213 SOUTH MAIN STREET", "state": "Kingfisher", "ZIPCODE": "OK", "type_store": "73750", "addrtype": "Wal-Mart", "addrlocat": null }, "geometry": { "type": "Point", "coordinates": [ -97.9310284, 35.8480949 ] } },
{ "type": "Feature", "properties": { "storenum": "133", "OPENDATE": "5\/1\/1976", "": null, "date_super": null, "conversion": null, "st": "5", "address": "81", "city": "1040 S CONSTITUTION", "state": "Ashdown", "ZIPCODE": "AR", "type_store": "71822", "addrtype": "Wal-Mart", "addrlocat": null }, "geometry": { "type": "Point", "coordinates": [ -94.1290542, 33.6716486 ] } },
{ "type": "Feature", "properties": { "storenum": "134", "OPENDATE": "8\/1\/1976", "": null, "date_super": null, "conversion": null, "st": "40", "address": "9", "city": "3105 WEST 3RD", "state": "Elk City", "ZIPCODE": "OK", "type_store": "73644", "addrtype": "Wal-Mart", "addrlocat": null }, "geometry": { "type": "Point", "coordinates": [ -99.4433333, 35.4126514 ] } },
{ "type": "Feature", "properties": { "storenum": "135", "OPENDATE": "4\/1\/1976", "": null, "date_super": "10\/27\/2004", "conversion": null, "st": "1", "address": "29", "city": "117", "state": "1000 GRAVES ST.", "ZIPCODE": "Chillicothe", "type_store": "MO", "addrtype": "64601", "addrlocat": "Supercenter" }, "geometry": { "type": "Point", "coordinates": [ -93.5564519, 39.776447 ] } },
{ "type": "Feature", "properties": { "storenum": "136", "OPENDATE": "4\/1\/1976", "": null, "date_super": null, "conversion": null, "st": "40", "address": "71", "city": "1219 WEST DOOLIN", "state": "Blackwell", "ZIPCODE": "OK", "type_store": "74631", "addrtype": "Wal-Mart", "addrlocat": null }, "geometry": { "type": "Point", "coordinates": [ -97.297254, 36.810401 ] } },
{ "type": "Feature", "properties": { "storenum": "137", "OPENDATE": "10\/1\/1976", "": null, "date_super": "3\/1\/1994", "conversion": null, "st": "1", "address": "40", "city": "119", "state": "111 NORTH PERKINS ROAD", "ZIPCODE": "Stillwater", "type_store": "OK", "addrtype": "74075", "addrlocat": "Supercenter" }, "geometry": { "type": "Point", "coordinates": [ -97.0508862, 36.1250018 ] } },
{ "type": "Feature", "properties": { "storenum": "138", "OPENDATE": "11\/1\/1977", "": null, "date_super": null, "conversion": null, "st": "29", "address": "77", "city": "1923 EAST KEARNEY", "state": "Springfield", "ZIPCODE": "MO", "type_store": "65803", "addrtype": "Wal-Mart", "addrlocat": null }, "geometry": { "type": "Point", "coordinates": [ -93.2587239, 37.2417189 ] } },
{ "type": "Feature", "properties": { "storenum": "139", "OPENDATE": "7\/1\/1976", "": null, "date_super": null, "conversion": null, "st": "40", "address": "87", "city": "1620 NORTH GREEN AVENUE", "state": "Purcell", "ZIPCODE": "OK", "type_store": "73080", "addrtype": "Wal-Mart", "addrlocat": null }, "geometry": { "type": "Point", "coordinates": [ -97.3648495, 35.0313926 ] } },
{ "type": "Feature", "properties": { "storenum": "140", "OPENDATE": "9\/1\/1976", "": null, "date_super": "7\/17\/2002", "conversion": null, "st": "1", "address": "48", "city": "5", "state": "2500 DANIEL MCCALL DRIVE", "ZIPCODE": "Lufkin", "type_store": "TX", "addrtype": "75901", "addrlocat": "Supercenter" }, "geometry": { "type": "Point", "coordinates": [ -94.7302554, 31.2997278 ] } },
{ "type": "Feature", "properties": { "storenum": "141", "OPENDATE": "5\/1\/1976", "": null, "date_super": "3\/1\/1997", "conversion": null, "st": "1", "address": "5", "city": "131", "state": "8301 ROGERS AVENUE", "ZIPCODE": "Fort Smith", "type_store": "AR", "addrtype": "72903", "addrlocat": "Supercenter" }, "geometry": { "type": "Point", "coordinates": [ -94.3389966, 35.349683 ] } },
{ "type": "Feature", "properties": { "storenum": "142", "OPENDATE": "5\/1\/1976", "": null, "date_super": null, "conversion": null, "st": "48", "address": "387", "city": "2204 HWY 82 WEST", "state": "Clarksville", "ZIPCODE": "TX", "type_store": "75426", "addrtype": "Wal-Mart", "addrlocat": null }, "geometry": { "type": "Point", "coordinates": [ -95.1375641, 33.6209006 ] } },
{ "type": "Feature", "properties": { "storenum": "143", "OPENDATE": "6\/1\/1976", "": null, "date_super": "3\/1\/2000", "conversion": null, "st": "1", "address": "21", "city": "157", "state": "310 WEST 5TH STREET", "ZIPCODE": "Benton", "type_store": "KY", "addrtype": "42025", "addrlocat": "Supercenter" }, "geometry": { "type": "Point", "coordinates": [ -88.3605671, 36.8696537 ] } },
{ "type": "Feature", "properties": { "storenum": "144", "OPENDATE": "9\/1\/1976", "": null, "date_super": "3\/1\/1994", "conversion": null, "st": "1", "address": "5", "city": "143", "state": "2875 WEST 6TH STREET", "ZIPCODE": "Fayetteville", "type_store": "AR", "addrtype": "72704", "addrlocat": "Supercenter" }, "geometry": { "type": "Point", "coordinates": [ -94.201044, 36.05053 ] } },
{ "type": "Feature", "properties": { "storenum": "145", "OPENDATE": "10\/1\/1976", "": null, "date_super": null, "conversion": null, "st": "29", "address": "163", "city": "3310 W GEORGIA STREET", "state": "Louisiana", "ZIPCODE": "MO", "type_store": "63353", "addrtype": "Wal-Mart", "addrlocat": null }, "geometry": { "type": "Point", "coordinates": [ -91.0705564, 39.4320291 ] } },
{ "type": "Feature", "properties": { "storenum": "146", "OPENDATE": "3\/1\/1976", "": null, "date_super": "3\/1\/1997", "conversion": null, "st": "1", "address": "48", "city": "459", "state": "1923 NORTH WOOD", "ZIPCODE": "Gilmer", "type_store": "TX", "addrtype": "75644", "addrlocat": "Supercenter" }, "geometry": { "type": "Point", "coordinates": [ -94.9376492, 32.7471792 ] } },
{ "type": "Feature", "properties": { "storenum": "147", "OPENDATE": "7\/1\/1976", "": null, "date_super": "3\/1\/1995", "conversion": null, "st": "1", "address": "48", "city": "181", "state": "401 NORTH US HWY 75", "ZIPCODE": "Denison", "type_store": "TX", "addrtype": "75020", "addrlocat": "Supercenter" }, "geometry": { "type": "Point", "coordinates": [ -96.6121319, 33.6737869 ] } },
{ "type": "Feature", "properties": { "storenum": "148", "OPENDATE": "6\/1\/1976", "": null, "date_super": "3\/1\/1996", "conversion": null, "st": "1", "address": "48", "city": "277", "state": "3855 LAMAR AVENUE", "ZIPCODE": "Paris", "type_store": "TX", "addrtype": "75460", "addrlocat": "Supercenter" }, "geometry": { "type": "Point", "coordinates": [ -95.5059316, 33.664655 ] } },
{ "type": "Feature", "properties": { "storenum": "149", "OPENDATE": "3\/1\/1977", "": null, "date_super": "3\/1\/2000", "conversion": null, "st": "1", "address": "22", "city": "49", "state": "184 OLD WINFIELD RD", "ZIPCODE": "Jonesboro", "type_store": "LA", "addrtype": "71251", "addrlocat": "Supercenter" }, "geometry": { "type": "Point", "coordinates": [ -92.7056923, 32.2280035 ] } },
{ "type": "Feature", "properties": { "storenum": "150", "OPENDATE": "10\/1\/1976", "": null, "date_super": "3\/1\/1998", "conversion": null, "st": "1", "address": "40", "city": "153", "state": "3215 WILLIAMS AVENUE", "ZIPCODE": "Woodward", "type_store": "OK", "addrtype": "73801", "addrlocat": "Supercenter" }, "geometry": { "type": "Point", "coordinates": [ -99.3841582, 36.4122931 ] } },
{ "type": "Feature", "properties": { "storenum": "151", "OPENDATE": "3\/1\/1977", "": null, "date_super": "3\/1\/1994", "conversion": null, "st": "1", "address": "40", "city": "121", "state": "432 SOUTH GEORGE NIGH EXWY", "ZIPCODE": "McAlester", "type_store": "OK", "addrtype": "74501", "addrlocat": "Supercenter" }, "geometry": { "type": "Point", "coordinates": [ -95.7404711, 34.9192035 ] } },
{ "type": "Feature", "properties": { "storenum": "152", "OPENDATE": "12\/1\/1976", "": null, "date_super": "10\/27\/2004", "conversion": null, "st": "1", "address": "29", "city": "99", "state": "12862 STATE ROAD 21", "ZIPCODE": "De Soto", "type_store": "MO", "addrtype": "63020", "addrlocat": "Supercenter" }, "geometry": { "type": "Point", "coordinates": [ -90.5745462, 38.1502236 ] } },
{ "type": "Feature", "properties": { "storenum": "153", "OPENDATE": "10\/1\/1976", "": null, "date_super": "3\/1\/1994", "conversion": null, "st": "1", "address": "28", "city": "145", "state": "202 PARK PLAZA", "ZIPCODE": "New Albany", "type_store": "MS", "addrtype": "38652", "addrlocat": "Supercenter" }, "geometry": { "type": "Point", "coordinates": [ -89.0326779, 34.4929884 ] } },
{ "type": "Feature", "properties": { "storenum": "155", "OPENDATE": "8\/1\/1977", "": null, "date_super": "3\/1\/1994", "conversion": null, "st": "1", "address": "28", "city": "137", "state": "5219 HWY 51 NORTH", "ZIPCODE": "Senatobia", "type_store": "MS", "addrtype": "38668", "addrlocat": "Supercenter" }, "geometry": { "type": "Point", "coordinates": [ -89.9719061, 34.6292789 ] } },
{ "type": "Feature", "properties": { "storenum": "156", "OPENDATE": "1\/1\/1977", "": null, "date_super": null, "conversion": null, "st": "29", "address": "155", "city": "STATE HWY 84 WEST", "state": "Caruthersville", "ZIPCODE": "MO", "type_store": "63830", "addrtype": "Wal-Mart", "addrlocat": null }, "geometry": { "type": "Point", "coordinates": [ -89.6643274, 36.1980371 ] } },
{ "type": "Feature", "properties": { "storenum": "157", "OPENDATE": "1\/1\/1977", "": null, "date_super": "3\/1\/1994", "conversion": null, "st": "1", "address": "5", "city": "145", "state": "3509 EAST RACE AVENUE", "ZIPCODE": "Searcy", "type_store": "AR", "addrtype": "72143", "addrlocat": "Supercenter" }, "geometry": { "type": "Point", "coordinates": [ -91.6873119, 35.2471362 ] } },
{ "type": "Feature", "properties": { "storenum": "158", "OPENDATE": "5\/1\/1977", "": null, "date_super": "3\/1\/1997", "conversion": null, "st": "1", "address": "48", "city": "147", "state": "2021 NORTH HWY 121", "ZIPCODE": "Bonham", "type_store": "TX", "addrtype": "75418", "addrlocat": "Supercenter" }, "geometry": { "type": "Point", "coordinates": [ -96.1945765, 33.5965859 ] } },
{ "type": "Feature", "properties": { "storenum": "159", "OPENDATE": "3\/1\/1977", "": null, "date_super": "3\/1\/1998", "conversion": null, "st": "1", "address": "29", "city": "19", "state": "415 CONLEY ROAD", "ZIPCODE": "Columbia", "type_store": "MO", "addrtype": "65201", "addrlocat": "Supercenter" }, "geometry": { "type": "Point", "coordinates": [ -92.2967368, 38.9549785 ] } },
{ "type": "Feature", "properties": { "storenum": "160", "OPENDATE": "1\/1\/1977", "": null, "date_super": "3\/1\/1994", "conversion": null, "st": "1", "address": "5", "city": "135", "state": "219 HIGHWAY 412", "ZIPCODE": "Ashflat", "type_store": "AR", "addrtype": "72513", "addrlocat": "Supercenter" }, "geometry": { "type": "Point", "coordinates": [ -91.8318334, 35.20105 ] } },
{ "type": "Feature", "properties": { "storenum": "161", "OPENDATE": "5\/1\/1977", "": null, "date_super": "2\/20\/2002", "conversion": null, "st": "1", "address": "47", "city": "17", "state": "180 VETERANS DRIVE N", "ZIPCODE": "Huntingdon", "type_store": "TN", "addrtype": "38344", "addrlocat": "Supercenter" }, "geometry": { "type": "Point", "coordinates": [ -88.437384, 35.9978267 ] } },
{ "type": "Feature", "properties": { "storenum": "162", "OPENDATE": "6\/1\/1977", "": null, "date_super": "3\/1\/1997", "conversion": null, "st": "1", "address": "40", "city": "15", "state": "1201 WEST PETREE RD", "ZIPCODE": "Anadarko", "type_store": "OK", "addrtype": "73005", "addrlocat": "Supercenter" }, "geometry": { "type": "Point", "coordinates": [ -98.262281, 35.0600811 ] } },
{ "type": "Feature", "properties": { "storenum": "163", "OPENDATE": "2\/1\/1977", "": null, "date_super": "3\/1\/1993", "conversion": null, "st": "1", "address": "48", "city": "347", "state": "4810 NORTH STREET", "ZIPCODE": "Nacogdoches", "type_store": "TX", "addrtype": "75965", "addrlocat": "Supercenter" }, "geometry": { "type": "Point", "coordinates": [ -94.6524298, 31.6501663 ] } },
{ "type": "Feature", "properties": { "storenum": "164", "OPENDATE": "2\/1\/1977", "": null, "date_super": null, "conversion": null, "st": "28", "address": "115", "city": "350 WAL-MART CIRCLE", "state": "Pontotoc", "ZIPCODE": "MS", "type_store": "38863", "addrtype": "Wal-Mart", "addrlocat": null }, "geometry": { "type": "Point", "coordinates": [ -89.021568, 34.252741 ] } },
{ "type": "Feature", "properties": { "storenum": "165", "OPENDATE": "5\/1\/1977", "": null, "date_super": "3\/1\/1996", "conversion": null, "st": "1", "address": "48", "city": "401", "state": "2121 HWY 79 SOUTH", "ZIPCODE": "Henderson", "type_store": "TX", "addrtype": "75654", "addrlocat": "Supercenter" }, "geometry": { "type": "Point", "coordinates": [ -94.7869114, 32.1486532 ] } },
{ "type": "Feature", "properties": { "storenum": "166", "OPENDATE": "3\/1\/1977", "": null, "date_super": "10\/30\/2002", "conversion": null, "st": "1", "address": "29", "city": "215", "state": "1433 SO. SAM HOUSTON BLVD", "ZIPCODE": "Houston", "type_store": "MO", "addrtype": "65483", "addrlocat": "Supercenter" }, "geometry": { "type": "Point", "coordinates": [ -91.9626585, 37.3137588 ] } },
{ "type": "Feature", "properties": { "storenum": "167", "OPENDATE": "4\/1\/1977", "": null, "date_super": "1\/26\/2005", "conversion": null, "st": "1", "address": "5", "city": "3", "state": "910 UNITY ROAD", "ZIPCODE": "Crossett", "type_store": "AR", "addrtype": "71635", "addrlocat": "Supercenter" }, "geometry": { "type": "Point", "coordinates": [ -91.9421529, 33.1362478 ] } },
{ "type": "Feature", "properties": { "storenum": "168", "OPENDATE": "2\/7\/1978", "": null, "date_super": "3\/1\/2000", "conversion": null, "st": "1", "address": "40", "city": "143", "state": "12101 E 96TH ST. N", "ZIPCODE": "Owasso", "type_store": "OK", "addrtype": "74055", "addrlocat": "Supercenter" }, "geometry": { "type": "Point", "coordinates": [ -95.8380916, 36.2951527 ] } },
{ "type": "Feature", "properties": { "storenum": "169", "OPENDATE": "9\/1\/1977", "": null, "date_super": null, "conversion": null, "st": "5", "address": "85", "city": "1400 NORTH CENTER", "state": "Lonoke", "ZIPCODE": "AR", "type_store": "72086", "addrtype": "Wal-Mart", "addrlocat": null }, "geometry": { "type": "Point", "coordinates": [ -91.8967449, 34.7958659 ] } },
{ "type": "Feature", "properties": { "storenum": "170", "OPENDATE": "10\/1\/1977", "": null, "date_super": "3\/1\/1995", "conversion": null, "st": "1", "address": "22", "city": "69", "state": "925 KEYSER AVE", "ZIPCODE": "Natchitoches", "type_store": "LA", "addrtype": "71457", "addrlocat": "Supercenter" }, "geometry": { "type": "Point", "coordinates": [ -93.0667724, 31.7502312 ] } },
{ "type": "Feature", "properties": { "storenum": "171", "OPENDATE": "11\/1\/1977", "": null, "date_super": null, "conversion": null, "st": "5", "address": "103", "city": "1270 STATE HWY 4 BYPASS SW", "state": "Camden", "ZIPCODE": "AR", "type_store": "71701", "addrtype": "Wal-Mart", "addrlocat": null }, "geometry": { "type": "Point", "coordinates": [ -92.866072, 33.585708 ] } },
{ "type": "Feature", "properties": { "storenum": "172", "OPENDATE": "7\/1\/1977", "": null, "date_super": "3\/1\/1988", "conversion": null, "st": "1", "address": "29", "city": "71", "state": "5886 HWY 100", "ZIPCODE": "Washington", "type_store": "MO", "addrtype": "63090", "addrlocat": "Supercenter" }, "geometry": { "type": "Point", "coordinates": [ -91.0006439, 38.5368126 ] } },
{ "type": "Feature", "properties": { "storenum": "173", "OPENDATE": "10\/1\/1977", "": null, "date_super": "5\/21\/2003", "conversion": null, "st": "1", "address": "29", "city": "221", "state": "#1 MEMORIAL DRIVE", "ZIPCODE": "Potosi", "type_store": "MO", "addrtype": "63664", "addrlocat": "Supercenter" }, "geometry": { "type": "Point", "coordinates": [ -90.7715467, 37.9238634 ] } },
{ "type": "Feature", "properties": { "storenum": "174", "OPENDATE": "10\/15\/1985", "": null, "date_super": "1\/26\/2005", "conversion": null, "st": "1", "address": "12", "city": "9", "state": "2700 CLEARLAKE ROAD", "ZIPCODE": "Rockledge", "type_store": "FL", "addrtype": "32922", "addrlocat": "Supercenter" }, "geometry": { "type": "Point", "coordinates": [ -80.7549615, 28.3458222 ] } },
{ "type": "Feature", "properties": { "storenum": "175", "OPENDATE": "11\/1\/1977", "": null, "date_super": "3\/1\/1996", "conversion": null, "st": "1", "address": "47", "city": "157", "state": "560 WEST POPLAR AVE", "ZIPCODE": "Collierville", "type_store": "TN", "addrtype": "38017", "addrlocat": "Supercenter" }, "geometry": { "type": "Point", "coordinates": [ -89.6811248, 35.0484367 ] } },
{ "type": "Feature", "properties": { "storenum": "176", "OPENDATE": "7\/1\/1977", "": null, "date_super": null, "conversion": null, "st": "28", "address": "139", "city": "822 CITY AVENUE SOUTH", "state": "Ripley", "ZIPCODE": "MS", "type_store": "38663", "addrtype": "Wal-Mart", "addrlocat": null }, "geometry": { "type": "Point", "coordinates": [ -88.9508974, 34.7237294 ] } },
{ "type": "Feature", "properties": { "storenum": "177", "OPENDATE": "11\/1\/1977", "": null, "date_super": "3\/1\/1997", "conversion": null, "st": "1", "address": "47", "city": "79", "state": "1210 MINERAL WELL AV", "ZIPCODE": "Paris", "type_store": "TN", "addrtype": "38242", "addrlocat": "Supercenter" }, "geometry": { "type": "Point", "coordinates": [ -88.3079485, 36.2810799 ] } },
{ "type": "Feature", "properties": { "storenum": "178", "OPENDATE": "11\/1\/1977", "": null, "date_super": "3\/1\/1997", "conversion": null, "st": "1", "address": "40", "city": "151", "state": "914 E OKLAHOMA BLVD", "ZIPCODE": "Alva", "type_store": "OK", "addrtype": "73717", "addrlocat": "Supercenter" }, "geometry": { "type": "Point", "coordinates": [ -98.6525962, 36.7977892 ] } },
{ "type": "Feature", "properties": { "storenum": "179", "OPENDATE": "2\/1\/1977", "": null, "date_super": "3\/14\/2001", "conversion": null, "st": "1", "address": "29", "city": "77", "state": "3520 W SUNSHINE ST.", "ZIPCODE": "Springfield", "type_store": "MO", "addrtype": "65807", "addrlocat": "Supercenter" }, "geometry": { "type": "Point", "coordinates": [ -93.3523941, 37.1803695 ] } },
{ "type": "Feature", "properties": { "storenum": "180", "OPENDATE": "3\/14\/1978", "": null, "date_super": "3\/1\/1994", "conversion": null, "st": "1", "address": "48", "city": "73", "state": "1311 SOUTH JACKSON", "ZIPCODE": "Jacksonville", "type_store": "TX", "addrtype": "75766", "addrlocat": "Supercenter" }, "geometry": { "type": "Point", "coordinates": [ -95.2664003, 31.9513849 ] } },
{ "type": "Feature", "properties": { "storenum": "181", "OPENDATE": "8\/8\/1978", "": null, "date_super": "5\/18\/2005", "conversion": null, "st": "1", "address": "48", "city": "37", "state": "800 JAMES BOWIE DRIVE", "ZIPCODE": "New Boston", "type_store": "TX", "addrtype": "75570", "addrlocat": "Supercenter" }, "geometry": { "type": "Point", "coordinates": [ -94.4034889, 33.4707603 ] } },
{ "type": "Feature", "properties": { "storenum": "182", "OPENDATE": "6\/1\/1979", "": null, "date_super": "7\/18\/2001", "conversion": null, "st": "1", "address": "28", "city": "151", "state": "1831 S DR MARTIN L. KING BLVD", "ZIPCODE": "Greenville", "type_store": "MS", "addrtype": "38701", "addrlocat": "Supercenter" }, "geometry": { "type": "Point", "coordinates": [ -91.0379653, 33.4056339 ] } },
{ "type": "Feature", "properties": { "storenum": "183", "OPENDATE": "10\/1\/1977", "": null, "date_super": "8\/25\/2004", "conversion": null, "st": "1", "address": "28", "city": "159", "state": "159 HIGHWAY 15 SOUTH", "ZIPCODE": "Louisville", "type_store": "MS", "addrtype": "39339", "addrlocat": "Supercenter" }, "geometry": { "type": "Point", "coordinates": [ -89.0827515, 33.1222353 ] } },
{ "type": "Feature", "properties": { "storenum": "184", "OPENDATE": "2\/1\/1978", "": null, "date_super": "5\/25\/2005", "conversion": null, "st": "1", "address": "29", "city": "95", "state": "600 N.E. CORONADO DRIVE", "ZIPCODE": "Blue Springs", "type_store": "MO", "addrtype": "64014", "addrlocat": "Supercenter" }, "geometry": { "type": "Point", "coordinates": [ -94.2550284, 39.0241933 ] } },
{ "type": "Feature", "properties": { "storenum": "185", "OPENDATE": "7\/21\/1993", "": null, "date_super": "3\/1\/2002", "conversion": null, "st": "1", "address": "48", "city": "97", "state": "1800 LAWRENCE ST.", "ZIPCODE": "Gainesville", "type_store": "TX", "addrtype": "76240", "addrlocat": "Supercenter" }, "geometry": { "type": "Point", "coordinates": [ -97.1358213, 33.6456488 ] } },
{ "type": "Feature", "properties": { "storenum": "186", "OPENDATE": "11\/1\/1977", "": null, "date_super": "10\/27\/2004", "conversion": null, "st": "1", "address": "20", "city": "15", "state": "301 SO. VILLAGE ROAD", "ZIPCODE": "El Dorado", "type_store": "KS", "addrtype": "67042", "addrlocat": "Supercenter" }, "geometry": { "type": "Point", "coordinates": [ -96.8922199, 37.8146072 ] } },
{ "type": "Feature", "properties": { "storenum": "188", "OPENDATE": "7\/1\/1977", "": null, "date_super": "3\/1\/1994", "conversion": null, "st": "1", "address": "29", "city": "31", "state": "3439 WILLIAMS STREET", "ZIPCODE": "Cape Girardeau", "type_store": "MO", "addrtype": "63701", "addrlocat": "Supercenter" }, "geometry": { "type": "Point", "coordinates": [ -89.5859286, 37.30105 ] } },
{ "type": "Feature", "properties": { "storenum": "189", "OPENDATE": "7\/1\/1977", "": null, "date_super": "3\/1\/1993", "conversion": null, "st": "1", "address": "29", "city": "1", "state": "2206 NORTH BALTIMORE", "ZIPCODE": "Kirksville", "type_store": "MO", "addrtype": "63501", "addrlocat": "Supercenter" }, "geometry": { "type": "Point", "coordinates": [ -92.5795729, 40.2166614 ] } },
{ "type": "Feature", "properties": { "storenum": "190", "OPENDATE": "7\/1\/1977", "": null, "date_super": "3\/1\/1995", "conversion": null, "st": "1", "address": "29", "city": "69", "state": "1500 EAST FIRST ST", "ZIPCODE": "Kennett", "type_store": "MO", "addrtype": "63857", "addrlocat": "Supercenter" }, "geometry": { "type": "Point", "coordinates": [ -90.0376649, 36.2388401 ] } },
{ "type": "Feature", "properties": { "storenum": "192", "OPENDATE": "9\/15\/1981", "": null, "date_super": "3\/20\/2002", "conversion": null, "st": "1", "address": "47", "city": "119", "state": "2200 BROOKMEAD DRIVE", "ZIPCODE": "Columbia", "type_store": "TN", "addrtype": "38401", "addrlocat": "Supercenter" }, "geometry": { "type": "Point", "coordinates": [ -87.0511504, 35.5990578 ] } },
{ "type": "Feature", "properties": { "storenum": "194", "OPENDATE": "1\/22\/1985", "": null, "date_super": "7\/18\/2001", "conversion": null, "st": "1", "address": "48", "city": "201", "state": "4900 GARTH ROAD", "ZIPCODE": "Baytown", "type_store": "TX", "addrtype": "77520", "addrlocat": "Supercenter" }, "geometry": { "type": "Point", "coordinates": [ -94.9744068, 29.7762265 ] } },
{ "type": "Feature", "properties": { "storenum": "195", "OPENDATE": "7\/1\/1977", "": null, "date_super": null, "conversion": null, "st": "29", "address": "47", "city": "2203 PATSY LANE", "state": "Excelsior Springs", "ZIPCODE": "MO", "type_store": "64024", "addrtype": "Wal-Mart", "addrlocat": null }, "geometry": { "type": "Point", "coordinates": [ -94.2650615, 39.3293705 ] } },
{ "type": "Feature", "properties": { "storenum": "196", "OPENDATE": "7\/1\/1977", "": null, "date_super": "3\/1\/1993", "conversion": null, "st": "1", "address": "17", "city": "77", "state": "1450 EAST MAIN", "ZIPCODE": "Carbondale", "type_store": "IL", "addrtype": "62901", "addrlocat": "Supercenter" }, "geometry": { "type": "Point", "coordinates": [ -89.186992, 37.7384567 ] } },
{ "type": "Feature", "properties": { "storenum": "197", "OPENDATE": "7\/1\/1977", "": null, "date_super": "8\/27\/2003", "conversion": null, "st": "1", "address": "17", "city": "109", "state": "1730 E JACKSON ROAD", "ZIPCODE": "Macomb", "type_store": "IL", "addrtype": "61455", "addrlocat": "Supercenter" }, "geometry": { "type": "Point", "coordinates": [ -90.6416079, 40.4611178 ] } },
{ "type": "Feature", "properties": { "storenum": "198", "OPENDATE": "7\/1\/1977", "": null, "date_super": "4\/16\/2003", "conversion": null, "st": "1", "address": "17", "city": "121", "state": "1870 WEST MAIN ST.", "ZIPCODE": "Salem", "type_store": "IL", "addrtype": "62881", "addrlocat": "Supercenter" }, "geometry": { "type": "Point", "coordinates": [ -88.9812351, 38.625944 ] } },
{ "type": "Feature", "properties": { "storenum": "199", "OPENDATE": "7\/1\/1977", "": null, "date_super": null, "conversion": null, "st": "17", "address": "107", "city": "1501 WOODLAWN ROAD", "state": "Lincoln", "ZIPCODE": "IL", "type_store": "62656", "addrtype": "Wal-Mart", "addrlocat": null }, "geometry": { "type": "Point", "coordinates": [ -89.3948804, 40.156455 ] } },
{ "type": "Feature", "properties": { "storenum": "200", "OPENDATE": "7\/1\/1977", "": null, "date_super": null, "conversion": null, "st": "17", "address": "137", "city": "1205 W MORTON ROAD", "state": "Jacksonville", "ZIPCODE": "IL", "type_store": "62650", "addrtype": "Wal-Mart", "addrlocat": null }, "geometry": { "type": "Point", "coordinates": [ -90.2491652, 39.721116 ] } },
{ "type": "Feature", "properties": { "storenum": "201", "OPENDATE": "7\/1\/1977", "": null, "date_super": null, "conversion": null, "st": "17", "address": "163", "city": "120 CARLYLE PLAZA DRIVE", "state": "Belleville", "ZIPCODE": "IL", "type_store": "62221", "addrtype": "Wal-Mart", "addrlocat": null }, "geometry": { "type": "Point", "coordinates": [ -89.9530568, 38.514669 ] } },
{ "type": "Feature", "properties": { "storenum": "203", "OPENDATE": "8\/29\/1978", "": null, "date_super": "3\/1\/1998", "conversion": null, "st": "1", "address": "29", "city": "115", "state": "937 PARK CIRCLE DR", "ZIPCODE": "Brookfield", "type_store": "MO", "addrtype": "64628", "addrlocat": "Supercenter" }, "geometry": { "type": "Point", "coordinates": [ -93.0727394, 39.7677388 ] } },
{ "type": "Feature", "properties": { "storenum": "204", "OPENDATE": "2\/14\/1978", "": null, "date_super": null, "conversion": null, "st": "21", "address": "33", "city": "500 US HWY 62 WEST", "state": "Princeton", "ZIPCODE": "KY", "type_store": "42445", "addrtype": "Wal-Mart", "addrlocat": null }, "geometry": { "type": "Point", "coordinates": [ -87.904071, 37.1125684 ] } },
{ "type": "Feature", "properties": { "storenum": "205", "OPENDATE": "3\/28\/1978", "": null, "date_super": "3\/1\/1994", "conversion": null, "st": "1", "address": "28", "city": "99", "state": "1002 BEACON STREET", "ZIPCODE": "Philadelphia", "type_store": "MS", "addrtype": "39350", "addrlocat": "Supercenter" }, "geometry": { "type": "Point", "coordinates": [ -89.1275641, 32.7675247 ] } },
{ "type": "Feature", "properties": { "storenum": "206", "OPENDATE": "3\/28\/1978", "": null, "date_super": "7\/20\/2005", "conversion": null, "st": "1", "address": "48", "city": "85", "state": "2041 REDBUD BLVD", "ZIPCODE": "McKinney", "type_store": "TX", "addrtype": "75069", "addrlocat": "Supercenter" }, "geometry": { "type": "Point", "coordinates": [ -96.6298511, 33.2219648 ] } },
{ "type": "Feature", "properties": { "storenum": "207", "OPENDATE": "3\/21\/1978", "": null, "date_super": null, "conversion": null, "st": "40", "address": "117", "city": "1004 NORTH BROADWAY", "state": "Cleveland", "ZIPCODE": "OK", "type_store": "74020", "addrtype": "Wal-Mart", "addrlocat": null }, "geometry": { "type": "Point", "coordinates": [ -96.4655577, 36.3205612 ] } },
{ "type": "Feature", "properties": { "storenum": "208", "OPENDATE": "4\/4\/1978", "": null, "date_super": null, "conversion": null, "st": "20", "address": "21", "city": "2970 MILITARY AVENUE", "state": "Baxter Springs", "ZIPCODE": "KS", "type_store": "66713", "addrtype": "Wal-Mart", "addrlocat": null }, "geometry": { "type": "Point", "coordinates": [ -94.7373891, 37.006249 ] } },
{ "type": "Feature", "properties": { "storenum": "209", "OPENDATE": "6\/1\/1978", "": null, "date_super": null, "conversion": null, "st": "5", "address": "47", "city": "1516 NORTH 18TH STREET", "state": "Ozark", "ZIPCODE": "AR", "type_store": "72949", "addrtype": "Wal-Mart", "addrlocat": null }, "geometry": { "type": "Point", "coordinates": [ -93.8438536, 35.5037126 ] } },
{ "type": "Feature", "properties": { "storenum": "210", "OPENDATE": "7\/18\/1978", "": null, "date_super": null, "conversion": null, "st": "40", "address": "63", "city": "500 EAST HIGHWAY 270", "state": "Holdenville", "ZIPCODE": "OK", "type_store": "74848", "addrtype": "Wal-Mart", "addrlocat": null }, "geometry": { "type": "Point", "coordinates": [ -96.385667, 35.0867984 ] } },
{ "type": "Feature", "properties": { "storenum": "211", "OPENDATE": "9\/12\/1978", "": null, "date_super": "3\/1\/1998", "conversion": null, "st": "1", "address": "48", "city": "217", "state": "401 COKE STREET", "ZIPCODE": "Hillsboro", "type_store": "TX", "addrtype": "76645", "addrlocat": "Supercenter" }, "geometry": { "type": "Point", "coordinates": [ -97.0999105, 32.0042198 ] } },
{ "type": "Feature", "properties": { "storenum": "212", "OPENDATE": "11\/1\/1977", "": null, "date_super": "3\/1\/1999", "conversion": null, "st": "1", "address": "40", "city": "27", "state": "333 INTERSTATE DRIVE", "ZIPCODE": "Norman", "type_store": "OK", "addrtype": "73069", "addrlocat": "Supercenter" }, "geometry": { "type": "Point", "coordinates": [ -97.481041, 35.2217014 ] } },
{ "type": "Feature", "properties": { "storenum": "213", "OPENDATE": "5\/16\/1978", "": null, "date_super": "3\/1\/1999", "conversion": null, "st": "1", "address": "17", "city": "135", "state": "1205 WEST FERDON ST", "ZIPCODE": "Litchfield", "type_store": "IL", "addrtype": "62056", "addrlocat": "Supercenter" }, "geometry": { "type": "Point", "coordinates": [ -89.6682712, 39.1855373 ] } },
{ "type": "Feature", "properties": { "storenum": "214", "OPENDATE": "10\/10\/1978", "": null, "date_super": "3\/1\/1994", "conversion": null, "st": "1", "address": "48", "city": "241", "state": "800 WEST GIBSON", "ZIPCODE": "Jasper", "type_store": "TX", "addrtype": "75951", "addrlocat": "Supercenter" }, "geometry": { "type": "Point", "coordinates": [ -94.0153572, 30.9083511 ] } },
{ "type": "Feature", "properties": { "storenum": "215", "OPENDATE": "5\/15\/1979", "": null, "date_super": null, "conversion": null, "st": "28", "address": "97", "city": "620 SOUTH APPLEGATE ST", "state": "Winona", "ZIPCODE": "MS", "type_store": "38967", "addrtype": "Wal-Mart", "addrlocat": null }, "geometry": { "type": "Point", "coordinates": [ -89.7371706, 33.4730613 ] } },
{ "type": "Feature", "properties": { "storenum": "216", "OPENDATE": "3\/27\/1979", "": null, "date_super": null, "conversion": null, "st": "17", "address": "199", "city": "2705 WALTON WAY", "state": "Marion", "ZIPCODE": "IL", "type_store": "62959", "addrtype": "Wal-Mart", "addrlocat": null }, "geometry": { "type": "Point", "coordinates": [ -88.9702955, 37.7427641 ] } },
{ "type": "Feature", "properties": { "storenum": "217", "OPENDATE": "9\/5\/1978", "": null, "date_super": "3\/1\/1999", "conversion": null, "st": "1", "address": "48", "city": "121", "state": "801 WEST MAIN", "ZIPCODE": "Lewisville", "type_store": "TX", "addrtype": "75067", "addrlocat": "Supercenter" }, "geometry": { "type": "Point", "coordinates": [ -97.0140448, 33.0472517 ] } },
{ "type": "Feature", "properties": { "storenum": "218", "OPENDATE": "4\/10\/1979", "": null, "date_super": "3\/1\/1998", "conversion": null, "st": "1", "address": "47", "city": "109", "state": "1017 MULBERRY AVENUE", "ZIPCODE": "Selmer", "type_store": "TN", "addrtype": "38375", "addrlocat": "Supercenter" }, "geometry": { "type": "Point", "coordinates": [ -88.5742683, 35.1395729 ] } },
{ "type": "Feature", "properties": { "storenum": "219", "OPENDATE": "10\/3\/1978", "": null, "date_super": "3\/1\/1993", "conversion": null, "st": "1", "address": "29", "city": "159", "state": "3201 WEST BROADWAY", "ZIPCODE": "Sedalia", "type_store": "MO", "addrtype": "65301", "addrlocat": "Supercenter" }, "geometry": { "type": "Point", "coordinates": [ -93.2709277, 38.7066907 ] } },
{ "type": "Feature", "properties": { "storenum": "220", "OPENDATE": "10\/17\/1978", "": null, "date_super": "3\/1\/1995", "conversion": null, "st": "1", "address": "48", "city": "251", "state": "951 SW WILSHIRE BLVD", "ZIPCODE": "Burleson", "type_store": "TX", "addrtype": "76028", "addrlocat": "Supercenter" }, "geometry": { "type": "Point", "coordinates": [ -97.3292646, 32.5421774 ] } },
{ "type": "Feature", "properties": { "storenum": "221", "OPENDATE": "10\/31\/1978", "": null, "date_super": "3\/1\/1994", "conversion": null, "st": "1", "address": "40", "city": "17", "state": "1200 GARTH BROOKS BLVD", "ZIPCODE": "Yukon", "type_store": "OK", "addrtype": "73099", "addrlocat": "Supercenter" }, "geometry": { "type": "Point", "coordinates": [ -97.7639096, 35.4904131 ] } },
{ "type": "Feature", "properties": { "storenum": "222", "OPENDATE": "12\/5\/1978", "": null, "date_super": "3\/1\/1996", "conversion": null, "st": "1", "address": "17", "city": "157", "state": "1410 N MARKET ST", "ZIPCODE": "Sparta", "type_store": "IL", "addrtype": "62286", "addrlocat": "Supercenter" }, "geometry": { "type": "Point", "coordinates": [ -89.7018378, 38.1414357 ] } },
{ "type": "Feature", "properties": { "storenum": "224", "OPENDATE": "6\/13\/1978", "": null, "date_super": "3\/1\/1997", "conversion": null, "st": "1", "address": "17", "city": "81", "state": "110 DAVIDSON AVENUE", "ZIPCODE": "Mount Vernon", "type_store": "IL", "addrtype": "62864", "addrlocat": "Supercenter" }, "geometry": { "type": "Point", "coordinates": [ -88.9583664, 38.3090257 ] } },
{ "type": "Feature", "properties": { "storenum": "225", "OPENDATE": "10\/24\/1978", "": null, "date_super": null, "conversion": null, "st": "40", "address": "99", "city": "2108 WEST BROADWAY", "state": "Sulphur", "ZIPCODE": "OK", "type_store": "73086", "addrtype": "Wal-Mart", "addrlocat": null }, "geometry": { "type": "Point", "coordinates": [ -96.9953319, 34.5074322 ] } },
{ "type": "Feature", "properties": { "storenum": "226", "OPENDATE": "10\/17\/1978", "": null, "date_super": "3\/1\/1997", "conversion": null, "st": "1", "address": "48", "city": "67", "state": "201 US HWY 59 LOOP", "ZIPCODE": "Atlanta", "type_store": "TX", "addrtype": "75551", "addrlocat": "Supercenter" }, "geometry": { "type": "Point", "coordinates": [ -97.1320399, 32.5558568 ] } },
{ "type": "Feature", "properties": { "storenum": "227", "OPENDATE": "10\/10\/1978", "": null, "date_super": "3\/1\/1995", "conversion": null, "st": "1", "address": "40", "city": "17", "state": "2400 SOUTH COUNTRY CLUB ROAD", "ZIPCODE": "El Reno", "type_store": "OK", "addrtype": "73036", "addrlocat": "Supercenter" }, "geometry": { "type": "Point", "coordinates": [ -97.9759528, 35.5112373 ] } },
{ "type": "Feature", "properties": { "storenum": "228", "OPENDATE": "9\/19\/1978", "": null, "date_super": "3\/1\/1995", "conversion": null, "st": "1", "address": "48", "city": "251", "state": "1616 WEST HENDERSON", "ZIPCODE": "Cleburne", "type_store": "TX", "addrtype": "76031", "addrlocat": "Supercenter" }, "geometry": { "type": "Point", "coordinates": [ -97.4152027, 32.3414214 ] } },
{ "type": "Feature", "properties": { "storenum": "229", "OPENDATE": "10\/31\/1978", "": null, "date_super": "9\/15\/2004", "conversion": null, "st": "1", "address": "5", "city": "111", "state": "512 INDUSTRIAL DRIVE", "ZIPCODE": "Trumann", "type_store": "AR", "addrtype": "72472", "addrlocat": "Supercenter" }, "geometry": { "type": "Point", "coordinates": [ -90.5498812, 35.6815733 ] } },
{ "type": "Feature", "properties": { "storenum": "230", "OPENDATE": "12\/5\/1978", "": null, "date_super": null, "conversion": null, "st": "5", "address": "83", "city": "1501 EAST WALNUT STREET", "state": "Paris", "ZIPCODE": "AR", "type_store": "72855", "addrtype": "Wal-Mart", "addrlocat": null }, "geometry": { "type": "Point", "coordinates": [ -93.716199, 35.2933756 ] } },
{ "type": "Feature", "properties": { "storenum": "231", "OPENDATE": "9\/19\/1978", "": null, "date_super": "3\/1\/1995", "conversion": null, "st": "1", "address": "40", "city": "123", "state": "1419 N. COUNTRY CLUB RD.", "ZIPCODE": "Ada", "type_store": "OK", "addrtype": "74820", "addrlocat": "Supercenter" }, "geometry": { "type": "Point", "coordinates": [ -96.6561389, 34.7891257 ] } },
{ "type": "Feature", "properties": { "storenum": "232", "OPENDATE": "9\/19\/1978", "": null, "date_super": null, "conversion": null, "st": "40", "address": "5", "city": "1901 SOUTH MISSISSIPPI", "state": "Atoka", "ZIPCODE": "OK", "type_store": "74525", "addrtype": "Wal-Mart", "addrlocat": null }, "geometry": { "type": "Point", "coordinates": [ -96.1426364, 34.3662245 ] } },
{ "type": "Feature", "properties": { "storenum": "233", "OPENDATE": "11\/21\/1978", "": null, "date_super": "3\/1\/1998", "conversion": null, "st": "1", "address": "17", "city": "181", "state": "300 LEIGH AVE", "ZIPCODE": "Anna", "type_store": "IL", "addrtype": "62906", "addrlocat": "Supercenter" }, "geometry": { "type": "Point", "coordinates": [ -89.2229887, 37.4618959 ] } },
{ "type": "Feature", "properties": { "storenum": "234", "OPENDATE": "12\/5\/1978", "": null, "date_super": "3\/1\/2004", "conversion": null, "st": "1", "address": "29", "city": "47", "state": "8301 NO. CHURCH ROAD", "ZIPCODE": "Liberty", "type_store": "MO", "addrtype": "64158", "addrlocat": "Supercenter" }, "geometry": { "type": "Point", "coordinates": [ -94.465873, 39.2308885 ] } },
{ "type": "Feature", "properties": { "storenum": "235", "OPENDATE": "11\/28\/1978", "": null, "date_super": null, "conversion": null, "st": "5", "address": "21", "city": "1900 WEST MAIN", "state": "Corning", "ZIPCODE": "AR", "type_store": "72422", "addrtype": "Wal-Mart", "addrlocat": null }, "geometry": { "type": "Point", "coordinates": [ -90.59575, 36.4128848 ] } },
{ "type": "Feature", "properties": { "storenum": "236", "OPENDATE": "2\/1\/1979", "": null, "date_super": "3\/1\/1998", "conversion": null, "st": "1", "address": "48", "city": "225", "state": "1225 E LOOP 304", "ZIPCODE": "Crockett", "type_store": "TX", "addrtype": "75835", "addrlocat": "Supercenter" }, "geometry": { "type": "Point", "coordinates": [ -95.4703613, 31.2991638 ] } },
{ "type": "Feature", "properties": { "storenum": "237", "OPENDATE": "11\/14\/1978", "": null, "date_super": null, "conversion": null, "st": "17", "address": "165", "city": "16 ARROWHEAD POINT SHPCNTR", "state": "Harrisburg", "ZIPCODE": "IL", "type_store": "62946", "addrtype": "Wal-Mart", "addrlocat": null }, "geometry": { "type": "Point", "coordinates": [ -88.540607, 37.7383812 ] } },
{ "type": "Feature", "properties": { "storenum": "238", "OPENDATE": "2\/13\/1979", "": null, "date_super": "3\/1\/1999", "conversion": null, "st": "1", "address": "47", "city": "55", "state": "1655 WEST COLLEGE STREET", "ZIPCODE": "Pulaski", "type_store": "TN", "addrtype": "38478", "addrlocat": "Supercenter" }, "geometry": { "type": "Point", "coordinates": [ -87.0604861, 35.2015552 ] } },
{ "type": "Feature", "properties": { "storenum": "239", "OPENDATE": "7\/31\/1979", "": null, "date_super": "3\/1\/1998", "conversion": null, "st": "1", "address": "28", "city": "7", "state": "220 VETERAN MEM DR", "ZIPCODE": "Kosciusko", "type_store": "MS", "addrtype": "39090", "addrlocat": "Supercenter" }, "geometry": { "type": "Point", "coordinates": [ -89.5669589, 33.0548927 ] } },
{ "type": "Feature", "properties": { "storenum": "240", "OPENDATE": "6\/19\/1979", "": null, "date_super": "3\/1\/2000", "conversion": null, "st": "1", "address": "48", "city": "231", "state": "2701 HWY 50", "ZIPCODE": "Commerce", "type_store": "TX", "addrtype": "75428", "addrlocat": "Supercenter" }, "geometry": { "type": "Point", "coordinates": [ -95.9147613, 33.2349807 ] } },
{ "type": "Feature", "properties": { "storenum": "242", "OPENDATE": "9\/18\/1979", "": null, "date_super": "3\/1\/1998", "conversion": null, "st": "1", "address": "20", "city": "121", "state": "310 HEDGE LANE", "ZIPCODE": "Paola", "type_store": "KS", "addrtype": "66071", "addrlocat": "Supercenter" }, "geometry": { "type": "Point", "coordinates": [ -94.8572565, 38.5735914 ] } },
{ "type": "Feature", "properties": { "storenum": "243", "OPENDATE": "10\/15\/1980", "": null, "date_super": null, "conversion": null, "st": "29", "address": "183", "city": "1971 WENTZVILLE PKWY", "state": "Wentzville", "ZIPCODE": "MO", "type_store": "63385", "addrtype": "Wal-Mart", "addrlocat": null }, "geometry": { "type": "Point", "coordinates": [ -90.8789579, 38.8147638 ] } },
{ "type": "Feature", "properties": { "storenum": "244", "OPENDATE": "7\/31\/1979", "": null, "date_super": "3\/1\/1999", "conversion": null, "st": "1", "address": "22", "city": "127", "state": "5940 HWY 167 NORTH", "ZIPCODE": "Winnfield", "type_store": "LA", "addrtype": "71483", "addrlocat": "Supercenter" }, "geometry": { "type": "Point", "coordinates": [ -92.6568573, 31.9503475 ] } },
{ "type": "Feature", "properties": { "storenum": "246", "OPENDATE": "9\/18\/1979", "": null, "date_super": "8\/24\/2005", "conversion": null, "st": "1", "address": "40", "city": "113", "state": "823 WEST ROGERS BLVD", "ZIPCODE": "Skiatook", "type_store": "OK", "addrtype": "74070", "addrlocat": "Supercenter" }, "geometry": { "type": "Point", "coordinates": [ -96.0141105, 36.3673721 ] } },
{ "type": "Feature", "properties": { "storenum": "247", "OPENDATE": "3\/13\/1979", "": null, "date_super": null, "conversion": null, "st": "40", "address": "111", "city": "605 EAST MAIN", "state": "Henryetta", "ZIPCODE": "OK", "type_store": "74437", "addrtype": "Wal-Mart", "addrlocat": null }, "geometry": { "type": "Point", "coordinates": [ -95.9744289, 35.438837 ] } },
{ "type": "Feature", "properties": { "storenum": "248", "OPENDATE": "8\/28\/1979", "": null, "date_super": "3\/1\/2000", "conversion": null, "st": "1", "address": "48", "city": "293", "state": "1406 EAST MILAM", "ZIPCODE": "Mexia", "type_store": "TX", "addrtype": "76667", "addrlocat": "Supercenter" }, "geometry": { "type": "Point", "coordinates": [ -96.456726, 31.6834486 ] } },
{ "type": "Feature", "properties": { "storenum": "249", "OPENDATE": "3\/6\/1979", "": null, "date_super": "3\/1\/2000", "conversion": null, "st": "1", "address": "48", "city": "291", "state": "831 HWY 59 SOUTH", "ZIPCODE": "Cleveland", "type_store": "TX", "addrtype": "77327", "addrlocat": "Supercenter" }, "geometry": { "type": "Point", "coordinates": [ -94.3735021, 32.9353635 ] } },
{ "type": "Feature", "properties": { "storenum": "250", "OPENDATE": "3\/27\/1979", "": null, "date_super": "10\/29\/2003", "conversion": null, "st": "1", "address": "29", "city": "15", "state": "103 WEST POLK ST", "ZIPCODE": "Warsaw", "type_store": "MO", "addrtype": "65355", "addrlocat": "Supercenter" }, "geometry": { "type": "Point", "coordinates": [ -93.3714372, 38.261737 ] } },
{ "type": "Feature", "properties": { "storenum": "251", "OPENDATE": "7\/10\/1979", "": null, "date_super": "3\/1\/1994", "conversion": null, "st": "1", "address": "48", "city": "499", "state": "135 NE LOOP 564", "ZIPCODE": "Mineola", "type_store": "TX", "addrtype": "75773", "addrlocat": "Supercenter" }, "geometry": { "type": "Point", "coordinates": [ -95.4818225, 32.6896138 ] } },
{ "type": "Feature", "properties": { "storenum": "252", "OPENDATE": "3\/18\/1980", "": null, "date_super": "3\/1\/1999", "conversion": null, "st": "1", "address": "17", "city": "145", "state": "215 GRANT WAY", "ZIPCODE": "Du Quoin", "type_store": "IL", "addrtype": "62832", "addrlocat": "Supercenter" }, "geometry": { "type": "Point", "coordinates": [ -89.2377877, 38.0235076 ] } },
{ "type": "Feature", "properties": { "storenum": "253", "OPENDATE": "12\/30\/1986", "": null, "date_super": "3\/1\/1997", "conversion": null, "st": "1", "address": "17", "city": "83", "state": "1316 SOUTH STATE STREET", "ZIPCODE": "Jerseyville", "type_store": "IL", "addrtype": "62052", "addrlocat": "Supercenter" }, "geometry": { "type": "Point", "coordinates": [ -90.3184863, 39.1034949 ] } },
{ "type": "Feature", "properties": { "storenum": "254", "OPENDATE": "11\/13\/1979", "": null, "date_super": "3\/1\/1998", "conversion": null, "st": "1", "address": "17", "city": "159", "state": "1001 NORTH WEST", "ZIPCODE": "Olney", "type_store": "IL", "addrtype": "62450", "addrlocat": "Supercenter" }, "geometry": { "type": "Point", "coordinates": [ -88.0978089, 38.7499728 ] } },
{ "type": "Feature", "properties": { "storenum": "256", "OPENDATE": "8\/21\/1979", "": null, "date_super": null, "conversion": null, "st": "17", "address": "119", "city": "400 JUNCTION DRIVE", "state": "Glen Carbon", "ZIPCODE": "IL", "type_store": "62034", "addrtype": "Wal-Mart", "addrlocat": null }, "geometry": { "type": "Point", "coordinates": [ -89.9525766, 38.775338 ] } },
{ "type": "Feature", "properties": { "storenum": "257", "OPENDATE": "10\/30\/1979", "": null, "date_super": "3\/1\/1999", "conversion": null, "st": "1", "address": "21", "city": "225", "state": "901 U.S. HWY 60 EAST", "ZIPCODE": "Morganfield", "type_store": "KY", "addrtype": "42437", "addrlocat": "Supercenter" }, "geometry": { "type": "Point", "coordinates": [ -87.9000121, 37.688629 ] } },
{ "type": "Feature", "properties": { "storenum": "258", "OPENDATE": "2\/12\/1980", "": null, "date_super": "3\/1\/1994", "conversion": null, "st": "1", "address": "28", "city": "81", "state": "3929 N GLOSTER STREET", "ZIPCODE": "Tupelo", "type_store": "MS", "addrtype": "38804", "addrlocat": "Supercenter" }, "geometry": { "type": "Point", "coordinates": [ -88.7099342, 34.3087242 ] } },
{ "type": "Feature", "properties": { "storenum": "259", "OPENDATE": "8\/28\/1979", "": null, "date_super": "3\/1\/1996", "conversion": null, "st": "1", "address": "48", "city": "397", "state": "782 INTERSTATE 30", "ZIPCODE": "Rockwall", "type_store": "TX", "addrtype": "75087", "addrlocat": "Supercenter" }, "geometry": { "type": "Point", "coordinates": [ -96.4620276, 32.9019005 ] } },
{ "type": "Feature", "properties": { "storenum": "260", "OPENDATE": "7\/17\/1979", "": null, "date_super": "3\/1\/1996", "conversion": null, "st": "1", "address": "48", "city": "139", "state": "1200 NO. HWY 77", "ZIPCODE": "Waxahachie", "type_store": "TX", "addrtype": "75165", "addrlocat": "Supercenter" }, "geometry": { "type": "Point", "coordinates": [ -96.8379531, 32.4168402 ] } },
{ "type": "Feature", "properties": { "storenum": "261", "OPENDATE": "12\/1\/1981", "": null, "date_super": "5\/16\/2001", "conversion": null, "st": "1", "address": "5", "city": "51", "state": "4019 CENTRAL AVENUE", "ZIPCODE": "Hot Springs", "type_store": "AR", "addrtype": "71913", "addrlocat": "Supercenter" }, "geometry": { "type": "Point", "coordinates": [ -93.0604687, 34.4545852 ] } },
{ "type": "Feature", "properties": { "storenum": "262", "OPENDATE": "7\/31\/1979", "": null, "date_super": "1\/28\/2004", "conversion": null, "st": "1", "address": "17", "city": "55", "state": "919 GIACONE DRIVE", "ZIPCODE": "Benton", "type_store": "IL", "addrtype": "62812", "addrlocat": "Supercenter" }, "geometry": { "type": "Point", "coordinates": [ -88.9369123, 38.0009237 ] } },
{ "type": "Feature", "properties": { "storenum": "264", "OPENDATE": "6\/26\/1979", "": null, "date_super": "3\/1\/1993", "conversion": null, "st": "1", "address": "47", "city": "43", "state": "175 BEASLEY DRIVE", "ZIPCODE": "Dickson", "type_store": "TN", "addrtype": "37055", "addrlocat": "Supercenter" }, "geometry": { "type": "Point", "coordinates": [ -87.3812644, 36.0600822 ] } },
{ "type": "Feature", "properties": { "storenum": "265", "OPENDATE": "9\/25\/1979", "": null, "date_super": "3\/1\/1997", "conversion": null, "st": "1", "address": "48", "city": "257", "state": "1900 WEST MOORE AVE", "ZIPCODE": "Terrell", "type_store": "TX", "addrtype": "75160", "addrlocat": "Supercenter" }, "geometry": { "type": "Point", "coordinates": [ -96.3060352, 32.7397407 ] } },
{ "type": "Feature", "properties": { "storenum": "266", "OPENDATE": "6\/24\/1980", "": null, "date_super": "10\/29\/2003", "conversion": null, "st": "1", "address": "48", "city": "439", "state": "1601 WEST STATE HIGHWAY 114", "ZIPCODE": "Grapevine", "type_store": "TX", "addrtype": "76051", "addrlocat": "Supercenter" }, "geometry": { "type": "Point", "coordinates": [ -97.1016766, 32.9308831 ] } },
{ "type": "Feature", "properties": { "storenum": "267", "OPENDATE": "5\/1\/1980", "": null, "date_super": "3\/1\/1999", "conversion": null, "st": "1", "address": "29", "city": "97", "state": "1212 SOUTH MADISON", "ZIPCODE": "Webb City", "type_store": "MO", "addrtype": "64870", "addrlocat": "Supercenter" }, "geometry": { "type": "Point", "coordinates": [ -94.4783808, 37.1335907 ] } },
{ "type": "Feature", "properties": { "storenum": "268", "OPENDATE": "10\/23\/1979", "": null, "date_super": "10\/16\/2002", "conversion": null, "st": "1", "address": "47", "city": "71", "state": "175 J.I. BELL LANE", "ZIPCODE": "Savannah", "type_store": "TN", "addrtype": "38372", "addrlocat": "Supercenter" }, "geometry": { "type": "Point", "coordinates": [ -88.2146563, 35.2240237 ] } },
{ "type": "Feature", "properties": { "storenum": "269", "OPENDATE": "10\/29\/1979", "": null, "date_super": "3\/1\/1997", "conversion": null, "st": "1", "address": "40", "city": "31", "state": "1002 NW SHERIDAN RD", "ZIPCODE": "Lawton", "type_store": "OK", "addrtype": "73505", "addrlocat": "Supercenter" }, "geometry": { "type": "Point", "coordinates": [ -98.4244577, 34.6188019 ] } },
{ "type": "Feature", "properties": { "storenum": "270", "OPENDATE": "8\/4\/1981", "": null, "date_super": null, "conversion": null, "st": "22", "address": "27", "city": "906 WEST MAIN STREET", "state": "Homer", "ZIPCODE": "LA", "type_store": "71040", "addrtype": "Wal-Mart", "addrlocat": null }, "geometry": { "type": "Point", "coordinates": [ -93.0536358, 32.8035916 ] } },
{ "type": "Feature", "properties": { "storenum": "271", "OPENDATE": "8\/7\/1979", "": null, "date_super": "8\/25\/2004", "conversion": null, "st": "1", "address": "48", "city": "337", "state": "8420 US HWY 287 NO.", "ZIPCODE": "Bowie", "type_store": "TX", "addrtype": "76230", "addrlocat": "Supercenter" }, "geometry": { "type": "Point", "coordinates": [ -103.12987, 38.876777 ] } },
{ "type": "Feature", "properties": { "storenum": "272", "OPENDATE": "8\/21\/1979", "": null, "date_super": "3\/14\/2001", "conversion": null, "st": "1", "address": "47", "city": "187", "state": "3600 MALLORY LANE", "ZIPCODE": "Franklin", "type_store": "TN", "addrtype": "37067", "addrlocat": "Supercenter" }, "geometry": { "type": "Point", "coordinates": [ -86.8191663, 35.9391751 ] } },